{"pois":[{"name":"Gärtringen","alternativeNames":[],"localizedNames":{},"coordinates":[8.9153963,48.6312313],"address":null,"type":null},{"name":"Herrenberg","alternativeNames":[],"localizedNames":{},"coordinates":[8.8996933,48.5778938],"address":null,"type":null},{"name":"Nufringen","alternativeNames":[],"localizedNames":{},"coordinates":[8.8902783,48.6203959],"address":null,"type":"public_transport:station"},{"name":"Herrenberg","alternativeNames":["Grosse Kreisstadt Herrenberg"],"localizedNames":{},"coordinates":[8.8886759,48.6000977],"address":null,"type":null},{"name":"Herrenberg","alternativeNames":[],"localizedNames":{},"coordinates":[8.8628752,48.5941067],"address":null,"type":"public_transport:stop_position"},{"name":"Raststätte Schönbuch","alternativeNames":[],"localizedNames":{},"coordinates":[8.9074603,48.617047],"address":null,"type":null},{"name":"Gültstein","alternativeNames":[],"localizedNames":{},"coordinates":[8.8817328,48.5774527],"address":null,"type":"public_transport:station"},{"name":"Herrenberg","alternativeNames":["Große Kreisstadt Herrenberg"],"localizedNames":{},"coordinates":[8.8647968,48.5874488],"address":null,"type":null},{"name":"Schönbuchtunnel","alternativeNames":[],"localizedNames":{},"coordinates":[8.8970719,48.6072865],"address":null,"type":null},{"name":"Schönbuchtunnel","alternativeNames":[],"localizedNames":{},"coordinates":[8.8961315,48.6017233],"address":null,"type":null},{"name":"Herrenberg","alternativeNames":["Große Kreisstadt Herrenberg"],"localizedNames":{},"coordinates":[8.8738605,48.6036021],"address":null,"type":null},{"name":"Gärtringen","alternativeNames":[],"localizedNames":{},"coordinates":[8.9254634,48.6383694],"address":null,"type":null},{"name":"Gärtringen","alternativeNames":[],"localizedNames":{},"coordinates":[8.9152482,48.6411738],"address":null,"type":null},{"name":"Shell","alternativeNames":[],"localizedNames":{},"coordinates":[8.9048446,48.6155502],"address":null,"type":"amenity:fuel"},{"name":"Raststätte Schönbuch","alternativeNames":[],"localizedNames":{},"coordinates":[8.9036073,48.6136261],"address":null,"type":null},{"name":"Breitenholz","alternativeNames":[],"localizedNames":{},"coordinates":[8.9570591,48.5703506],"address":null,"type":null},{"name":"Breitenholz Lamm","alternativeNames":[],"localizedNames":{},"coordinates":[8.9577577,48.5710916],"address":null,"type":"public_transport:stop_position"},{"name":"Kayh","alternativeNames":[],"localizedNames":{},"coordinates":[8.9225842,48.5760091],"address":null,"type":null},{"name":"Mönchberg","alternativeNames":[],"localizedNames":{},"coordinates":[8.9137785,48.5823984],"address":null,"type":null},{"name":"Gärtringen","alternativeNames":[],"localizedNames":{},"coordinates":[8.9031632,48.6419208],"address":null,"type":null},{"name":"Rohrau","alternativeNames":[],"localizedNames":{},"coordinates":[8.9237554,48.625372],"address":null,"type":null},{"name":"Affstätt","alternativeNames":[],"localizedNames":{},"coordinates":[8.8583072,48.6059715],"address":null,"type":null},{"name":"Segelflugplatz Deckenpfronn","alternativeNames":[],"localizedNames":{},"coordinates":[8.8112267,48.6373219],"address":null,"type":null},{"name":"Gärtringen","alternativeNames":[],"localizedNames":{},"coordinates":[8.8874229,48.6421965],"address":null,"type":null},{"name":"Hildrizhausen Altdorfer Straße","alternativeNames":[],"localizedNames":{},"coordinates":[8.9722624,48.6256107],"address":null,"type":"public_transport:stop_position"},{"name":"Grafenberg","alternativeNames":[],"localizedNames":{},"coordinates":[8.9222212,48.580206],"address":null,"type":"amenity:bench"},{"name":"ESSO","alternativeNames":[],"localizedNames":{},"coordinates":[8.9729899,48.6258928],"address":"Altdorfer Straße 17","type":"amenity:fuel"},{"name":"Gärtringen Feuerwehr-Gerätehaus","alternativeNames":[],"localizedNames":{},"coordinates":[8.8941027,48.6425495],"address":null,"type":null},{"name":"Herrenberg","alternativeNames":[],"localizedNames":{},"coordinates":[8.8674715,48.595557],"address":null,"type":null},{"name":"Nufringen","alternativeNames":[],"localizedNames":{},"coordinates":[8.8881021,48.6224388],"address":null,"type":null},{"name":"Anlage 318, Mast 83D","alternativeNames":[],"localizedNames":{},"coordinates":[8.8720296,48.6151982],"address":null,"type":null},{"name":"Anlage 318, Mast 83C","alternativeNames":[],"localizedNames":{},"coordinates":[8.8719953,48.6181488],"address":null,"type":null},{"name":"Anlage 318, Mast 83B","alternativeNames":[],"localizedNames":{},"coordinates":[8.8719095,48.6218255],"address":null,"type":null},{"name":"Anlage 318, Mast 83A","alternativeNames":[],"localizedNames":{},"coordinates":[8.8718752,48.6246339],"address":null,"type":null},{"name":"Stuttgart-Eutingen Nr. 7639","alternativeNames":[],"localizedNames":{},"coordinates":[8.8065078,48.5962969],"address":null,"type":null},{"name":"Kuppingen","alternativeNames":[],"localizedNames":{},"coordinates":[8.8431229,48.610752],"address":null,"type":null},{"name":"Oberjesingen","alternativeNames":[],"localizedNames":{},"coordinates":[8.8340858,48.6227427],"address":null,"type":null},{"name":"Stellberg","alternativeNames":[],"localizedNames":{},"coordinates":[8.9094606,48.6039727],"address":null,"type":"natural:peak"},{"name":"bft","alternativeNames":[],"localizedNames":{},"coordinates":[8.8336527,48.5843935],"address":"Hohenzollernstraße 97","type":"amenity:fuel"},{"name":"Haslach Kirche","alternativeNames":[],"localizedNames":{},"coordinates":[8.8398116,48.5830736],"address":null,"type":null},{"name":"Sparkasse & Volksbank","alternativeNames":[],"localizedNames":{},"coordinates":[8.8387113,48.5830415],"address":"Hohenzollernstraße 43","type":"amenity:bank"},{"name":"Haslach","alternativeNames":[],"localizedNames":{},"coordinates":[8.8445761,48.5810989],"address":null,"type":null},{"name":"Postbank","alternativeNames":[],"localizedNames":{},"coordinates":[8.8634694,48.5935428],"address":null,"type":"amenity:bank"},{"name":"Nufringen","alternativeNames":[],"localizedNames":{},"coordinates":[8.8964211,48.6236328],"address":null,"type":null},{"name":"Shell","alternativeNames":[],"localizedNames":{},"coordinates":[8.8783395,48.5914604],"address":null,"type":"amenity:fuel"},{"name":"Haslach Sindlinger Straße","alternativeNames":[],"localizedNames":{},"coordinates":[8.8401002,48.5805307],"address":null,"type":null},{"name":"Kuppingen Jennerstraße","alternativeNames":[],"localizedNames":{},"coordinates":[8.845356,48.610025],"address":null,"type":null},{"name":"Kuppingen Albrecht-Haut-Gasse","alternativeNames":[],"localizedNames":{},"coordinates":[8.8426821,48.611647],"address":null,"type":null},{"name":"Post Herrenberg","alternativeNames":[],"localizedNames":{},"coordinates":[8.8634399,48.5935889],"address":null,"type":"amenity:post_office"},{"name":"ZOB Herrenberg","alternativeNames":[],"localizedNames":{},"coordinates":[8.8643706,48.5942385],"address":null,"type":"amenity:bus_station"},{"name":"Nufringer Tor","alternativeNames":[],"localizedNames":{},"coordinates":[8.8703096,48.5979079],"address":null,"type":"amenity:parking"},{"name":"24 Buchen","alternativeNames":[],"localizedNames":{},"coordinates":[8.9290388,48.600213],"address":null,"type":"natural:tree"},{"name":"Würmursprung","alternativeNames":[],"localizedNames":{},"coordinates":[8.9611918,48.6174546],"address":null,"type":"natural:spring"},{"name":"Eigenwerk","alternativeNames":[],"localizedNames":{},"coordinates":[8.8591521,48.6070498],"address":null,"type":"shop:gift"},{"name":"Bäckerei Zander","alternativeNames":[],"localizedNames":{},"coordinates":[8.8667802,48.5950292],"address":null,"type":"shop:bakery"},{"name":"Gültstein","alternativeNames":[],"localizedNames":{},"coordinates":[8.8794268,48.5752062],"address":null,"type":null},{"name":"Haslach","alternativeNames":[],"localizedNames":{},"coordinates":[8.8401103,48.5810672],"address":null,"type":null},{"name":"Barista","alternativeNames":[],"localizedNames":{},"coordinates":[8.86822,48.5953327],"address":"Auf dem Graben 6","type":"amenity:cafe"},{"name":"König Kebaphaus","alternativeNames":[],"localizedNames":{},"coordinates":[8.8683326,48.5951952],"address":"Hindenburgstraße 7","type":"amenity:fast_food"},{"name":"Hanoi Pho","alternativeNames":[],"localizedNames":{},"coordinates":[8.8684046,48.5951556],"address":"Hindenburgstraße 7","type":"amenity:restaurant"},{"name":"Marco Polo","alternativeNames":[],"localizedNames":{},"coordinates":[8.8685314,48.5950941],"address":"Hindenburgstraße 7","type":"amenity:restaurant"},{"name":"Volksbank-Raiffeisenbank Herrenberg-Rottenburg","alternativeNames":[],"localizedNames":{},"coordinates":[8.8644064,48.5939014],"address":null,"type":"amenity:atm"},{"name":"Herrenberg Reinhold-Schick-Platz","alternativeNames":[],"localizedNames":{},"coordinates":[8.8657891,48.5957028],"address":null,"type":null},{"name":"Herrenberg Reinhold-Schick-Platz","alternativeNames":[],"localizedNames":{},"coordinates":[8.8658265,48.5955519],"address":null,"type":null},{"name":"Herrenberg Altenzentrum","alternativeNames":[],"localizedNames":{},"coordinates":[8.8786249,48.595515],"address":null,"type":null},{"name":"Öfele","alternativeNames":[],"localizedNames":{},"coordinates":[8.7970981,48.5872344],"address":null,"type":null},{"name":"ZOB Kalkofenstraße","alternativeNames":[],"localizedNames":{},"coordinates":[8.8614501,48.5942966],"address":null,"type":"amenity:bus_station"},{"name":"Gültstein Heerstraße","alternativeNames":[],"localizedNames":{},"coordinates":[8.8880223,48.5772971],"address":null,"type":null},{"name":"Gültstein Heerstraße","alternativeNames":[],"localizedNames":{},"coordinates":[8.8881611,48.5771229],"address":null,"type":null},{"name":"Gültstein - Erholungsheim","alternativeNames":[],"localizedNames":{},"coordinates":[8.8808412,48.5787632],"address":null,"type":null},{"name":"Gültstein Holzsteig","alternativeNames":[],"localizedNames":{},"coordinates":[8.8924458,48.5806073],"address":null,"type":"public_transport:stop_position"},{"name":"Gültstein Holzsteig","alternativeNames":[],"localizedNames":{},"coordinates":[8.8923246,48.5803244],"address":null,"type":"public_transport:stop_position"},{"name":"Gasthaus Zur Krone","alternativeNames":[],"localizedNames":{},"coordinates":[8.8791864,48.5749485],"address":null,"type":"amenity:restaurant"},{"name":"Glockenmuseum","alternativeNames":[],"localizedNames":{},"coordinates":[8.8710419,48.5968006],"address":null,"type":"tourism:museum"},{"name":"Radsport Holczer","alternativeNames":[],"localizedNames":{},"coordinates":[8.8648539,48.5893128],"address":"Horber Straße 61","type":"shop:bicycle"},{"name":"BaseCamp","alternativeNames":[],"localizedNames":{},"coordinates":[8.8709849,48.5954698],"address":null,"type":"shop:outdoor"},{"name":"Freie Tankstelle","alternativeNames":[],"localizedNames":{},"coordinates":[8.8948232,48.6208487],"address":null,"type":"amenity:fuel"},{"name":"CAP-Markt","alternativeNames":[],"localizedNames":{},"coordinates":[8.8915811,48.6226616],"address":"Hauptstraße 30","type":"shop:supermarket"},{"name":"Bäckerei Weinberg","alternativeNames":[],"localizedNames":{},"coordinates":[8.8542162,48.5940233],"address":"Berliner Straße 6","type":"shop:bakery"},{"name":"Herrenberg Berliner Straße","alternativeNames":[],"localizedNames":{},"coordinates":[8.856461,48.5953751],"address":null,"type":null},{"name":"Herrenberg Berliner Straße","alternativeNames":[],"localizedNames":{},"coordinates":[8.855012,48.5956014],"address":null,"type":null},{"name":"Herrenberg Vogt-Hess-Schule","alternativeNames":[],"localizedNames":{},"coordinates":[8.8551949,48.5946001],"address":null,"type":null},{"name":"Herrenberg St. Martin","alternativeNames":[],"localizedNames":{},"coordinates":[8.8542178,48.5937498],"address":null,"type":null},{"name":"Herrenberg Königsberger Straße","alternativeNames":[],"localizedNames":{},"coordinates":[8.8508626,48.5937044],"address":null,"type":null},{"name":"Herrenberg Akazienweg","alternativeNames":[],"localizedNames":{},"coordinates":[8.8502106,48.5959832],"address":null,"type":null},{"name":"Herrenberg Eichenweg","alternativeNames":[],"localizedNames":{},"coordinates":[8.8582414,48.596304],"address":null,"type":null},{"name":"Herrenberg Im Steingraben","alternativeNames":[],"localizedNames":{},"coordinates":[8.8533077,48.596858],"address":null,"type":null},{"name":"Herrenberg Wittenberger Straße","alternativeNames":[],"localizedNames":{},"coordinates":[8.8464164,48.5942102],"address":null,"type":null},{"name":"Herrenberg Schießtäle","alternativeNames":[],"localizedNames":{},"coordinates":[8.8612888,48.5952825],"address":null,"type":"public_transport:platform"},{"name":"Europcar Herrenberg","alternativeNames":[],"localizedNames":{},"coordinates":[8.8630598,48.5958588],"address":"Nagolder Straße 7","type":"amenity:car_rental"},{"name":"Kreissparkasse","alternativeNames":[],"localizedNames":{},"coordinates":[8.8921643,48.6229887],"address":"Hauptstraße 34","type":"amenity:bank"},{"name":"Haar-Treff Nihal","alternativeNames":[],"localizedNames":{},"coordinates":[8.891867,48.6227233],"address":"Hauptstraße 34","type":"shop:hairdresser"},{"name":"Hotel & Restaurant Lamm","alternativeNames":[],"localizedNames":{},"coordinates":[8.8918648,48.6228791],"address":"Hauptstraße 32","type":"amenity:restaurant"},{"name":"Bistro Pfiffka","alternativeNames":[],"localizedNames":{},"coordinates":[8.8958323,48.6201491],"address":null,"type":"amenity:pub"},{"name":"Gäusportschützen Gesellschaft Herrenberg-Nufringen e.V.","alternativeNames":[],"localizedNames":{},"coordinates":[8.9068566,48.6194189],"address":null,"type":null},{"name":"El Zapata","alternativeNames":[],"localizedNames":{},"coordinates":[8.906165,48.6192553],"address":null,"type":"amenity:restaurant"},{"name":"Tropicana","alternativeNames":[],"localizedNames":{},"coordinates":[8.8931818,48.6232092],"address":"Hauptstraße 46","type":"amenity:pub"},{"name":"Carmel Apotheke","alternativeNames":[],"localizedNames":{},"coordinates":[8.8896301,48.622998],"address":"Hauptstraße 27/1","type":"amenity:pharmacy"},{"name":"Bronntor","alternativeNames":[],"localizedNames":{},"coordinates":[8.8680359,48.5965072],"address":null,"type":"amenity:parking"},{"name":"Schlosskeller","alternativeNames":[],"localizedNames":{},"coordinates":[8.8737248,48.5974015],"address":null,"type":"amenity:restaurant"},{"name":"Kuppingen Jennerstraße","alternativeNames":[],"localizedNames":{},"coordinates":[8.8462691,48.6097557],"address":null,"type":null},{"name":"Kuppingen Albrecht-Haut-Gasse","alternativeNames":[],"localizedNames":{},"coordinates":[8.8428237,48.6119104],"address":null,"type":null},{"name":"Affstätt Rathaus","alternativeNames":[],"localizedNames":{},"coordinates":[8.8594758,48.6068741],"address":null,"type":null},{"name":"Affstätt Kirche","alternativeNames":[],"localizedNames":{},"coordinates":[8.8581374,48.6073542],"address":null,"type":null},{"name":"Affstätt Nelkenstraße","alternativeNames":[],"localizedNames":{},"coordinates":[8.8598074,48.6049231],"address":null,"type":null},{"name":"Herrenberg Mühlweg","alternativeNames":[],"localizedNames":{},"coordinates":[8.860691,48.5980027],"address":null,"type":null},{"name":"Herrenberg Mühlweg","alternativeNames":[],"localizedNames":{},"coordinates":[8.8611664,48.597428],"address":null,"type":null},{"name":"Kuppingen Jettinger Straße","alternativeNames":[],"localizedNames":{},"coordinates":[8.8391432,48.6111206],"address":null,"type":null},{"name":"Oberjesingen Zaberstraße","alternativeNames":[],"localizedNames":{},"coordinates":[8.8360388,48.6209078],"address":null,"type":null},{"name":"Schulbrunnen","alternativeNames":[],"localizedNames":{},"coordinates":[8.8695652,48.5953249],"address":null,"type":"amenity:fountain"},{"name":"Metzgerei Walter Bosch","alternativeNames":[],"localizedNames":{},"coordinates":[8.8422914,48.6107442],"address":null,"type":"shop:butcher"},{"name":"Metzgerei Kuttler","alternativeNames":[],"localizedNames":{},"coordinates":[8.8406416,48.6120062],"address":null,"type":"shop:butcher"},{"name":"Bäckerei Kohler","alternativeNames":[],"localizedNames":{},"coordinates":[8.8402246,48.611061],"address":null,"type":"shop:bakery"},{"name":"Ammerquelle","alternativeNames":[],"localizedNames":{},"coordinates":[8.8551731,48.5843334],"address":null,"type":"natural:spring"},{"name":"Volksbank Herrenberg-Rottenburg","alternativeNames":[],"localizedNames":{},"coordinates":[8.8581347,48.6072358],"address":null,"type":"amenity:bank"},{"name":"Königsbrunnen","alternativeNames":[],"localizedNames":{},"coordinates":[8.8710936,48.595878],"address":null,"type":"amenity:fountain"},{"name":"Parkplatz Schützenhaus","alternativeNames":[],"localizedNames":{},"coordinates":[8.797661,48.6136669],"address":null,"type":"amenity:parking"},{"name":"Kuppingen Schulzentrum","alternativeNames":[],"localizedNames":{},"coordinates":[8.8417466,48.6153991],"address":null,"type":null},{"name":"Grillplatz","alternativeNames":[],"localizedNames":{},"coordinates":[8.8319663,48.5704195],"address":null,"type":"tourism:picnic_site"},{"name":"CDU Hütte","alternativeNames":[],"localizedNames":{},"coordinates":[8.8316814,48.5705596],"address":null,"type":"amenity:shelter"},{"name":"Herrenberg","alternativeNames":[],"localizedNames":{},"coordinates":[8.862981,48.593964],"address":null,"type":"public_transport:stop_position"},{"name":"Herrenberg Bronntor","alternativeNames":[],"localizedNames":{},"coordinates":[8.8683271,48.5970048],"address":null,"type":"public_transport:platform"},{"name":"Herrenberg Bronntor","alternativeNames":[],"localizedNames":{},"coordinates":[8.8679695,48.5969418],"address":null,"type":null},{"name":"Badbrunnen","alternativeNames":[],"localizedNames":{},"coordinates":[8.8691035,48.5968087],"address":null,"type":"amenity:fountain"},{"name":"Herrenberg Kronenbuckel","alternativeNames":[],"localizedNames":{},"coordinates":[8.8719319,48.5985949],"address":null,"type":null},{"name":"Krone","alternativeNames":[],"localizedNames":{},"coordinates":[8.8719843,48.5985547],"address":null,"type":"amenity:restaurant"},{"name":"Nufringen","alternativeNames":[],"localizedNames":{},"coordinates":[8.890193,48.620411],"address":null,"type":"public_transport:stop_position"},{"name":"Gärtringen","alternativeNames":[],"localizedNames":{},"coordinates":[8.9089238,48.6408376],"address":null,"type":"public_transport:station"},{"name":"Herrenberg","alternativeNames":[],"localizedNames":{},"coordinates":[8.8628456,48.5941467],"address":null,"type":"public_transport:stop_position"},{"name":"Kohltor","alternativeNames":[],"localizedNames":{},"coordinates":[8.9674849,48.6140725],"address":null,"type":"amenity:parking"},{"name":"Gasthaus Lamm","alternativeNames":[],"localizedNames":{},"coordinates":[8.8369255,48.5832086],"address":"Achalmstraße 2","type":"amenity:restaurant"},{"name":"Haslach Kirche","alternativeNames":[],"localizedNames":{},"coordinates":[8.838781,48.5830415],"address":null,"type":null},{"name":"Haslach Sindlinger Straße","alternativeNames":[],"localizedNames":{},"coordinates":[8.8397753,48.5806161],"address":null,"type":null},{"name":"Herrenberg","alternativeNames":["Große Kreisstadt Herrenberg"],"localizedNames":{},"coordinates":[8.878683,48.5909918],"address":null,"type":null},{"name":"Herrenberg Ehbühl / Grafenweg","alternativeNames":[],"localizedNames":{},"coordinates":[8.8856745,48.5994946],"address":null,"type":null},{"name":"Herrenberg Grafenweg","alternativeNames":[],"localizedNames":{},"coordinates":[8.8864796,48.5992963],"address":null,"type":null},{"name":"Kreissparkasse","alternativeNames":[],"localizedNames":{},"coordinates":[8.8831928,48.5950418],"address":null,"type":"amenity:bank"},{"name":"Baier","alternativeNames":[],"localizedNames":{},"coordinates":[8.8829596,48.5951202],"address":"Mozartstraße 4","type":"shop:bakery"},{"name":"Ev. Kirchengemeinde Pfarramt Ost","alternativeNames":[],"localizedNames":{},"coordinates":[8.8838784,48.5950812],"address":null,"type":"office:religion"},{"name":"Herrenberg Hallenbad","alternativeNames":[],"localizedNames":{},"coordinates":[8.8762371,48.5902238],"address":null,"type":"public_transport:stop_position"},{"name":"Bistro Wasserwelt","alternativeNames":[],"localizedNames":{},"coordinates":[8.8755329,48.589886],"address":null,"type":"amenity:restaurant"},{"name":"Herrenberg Altstadtgarage","alternativeNames":[],"localizedNames":{},"coordinates":[8.8721903,48.5939849],"address":null,"type":null},{"name":"Herrenberg Finkenweg","alternativeNames":[],"localizedNames":{},"coordinates":[8.8633886,48.5900463],"address":null,"type":null},{"name":"Herrenberg Amselweg","alternativeNames":[],"localizedNames":{},"coordinates":[8.8614787,48.5894052],"address":null,"type":null},{"name":"Herrenberg Vogelsang","alternativeNames":[],"localizedNames":{},"coordinates":[8.8556025,48.586411],"address":null,"type":null},{"name":"Herrenberg Adlerstraße","alternativeNames":[],"localizedNames":{},"coordinates":[8.8556132,48.5884696],"address":null,"type":null},{"name":"Herrenberg Im Seele","alternativeNames":[],"localizedNames":{},"coordinates":[8.8579702,48.5899022],"address":null,"type":null},{"name":"Herrenberg Zeisigweg","alternativeNames":[],"localizedNames":{},"coordinates":[8.8604278,48.5881519],"address":null,"type":null},{"name":"Herrenberg Fröbelschule","alternativeNames":[],"localizedNames":{},"coordinates":[8.8603408,48.590097],"address":null,"type":null},{"name":"Hexenhaus","alternativeNames":[],"localizedNames":{},"coordinates":[8.8707568,48.597754],"address":null,"type":"amenity:pub"},{"name":"Markt Apotheke","alternativeNames":[],"localizedNames":{},"coordinates":[8.8956064,48.6425474],"address":"Bismarckstraße 39","type":"amenity:pharmacy"},{"name":"Sonnen-Apotheke","alternativeNames":[],"localizedNames":{},"coordinates":[8.8974124,48.6370743],"address":"Grabenstraße 62b","type":"amenity:pharmacy"},{"name":"Silence (Ehem. Gärtringer Eck)","alternativeNames":[],"localizedNames":{},"coordinates":[8.9090734,48.6423176],"address":"Gartenstraße 2","type":"amenity:restaurant"},{"name":"Johannes-Konath-Eiche","alternativeNames":[],"localizedNames":{},"coordinates":[8.955448,48.6149063],"address":null,"type":"natural:tree"},{"name":"Kreissparkasse/Volksbank","alternativeNames":[],"localizedNames":{},"coordinates":[8.9230848,48.6250478],"address":null,"type":"amenity:atm"},{"name":"Mönchberg Abzweig","alternativeNames":[],"localizedNames":{},"coordinates":[8.9089547,48.579035],"address":null,"type":"public_transport:stop_position"},{"name":"Mönchberg","alternativeNames":["Kayh"],"localizedNames":{},"coordinates":[8.9162179,48.5785036],"address":null,"type":null},{"name":"Mönchberg","alternativeNames":[],"localizedNames":{},"coordinates":[8.9094589,48.5796481],"address":null,"type":null},{"name":"Mönchberg Greutäckerstraße","alternativeNames":[],"localizedNames":{},"coordinates":[8.9074847,48.5803679],"address":null,"type":"public_transport:stop_position"},{"name":"Mönchberg Weingartenstraße","alternativeNames":[],"localizedNames":{},"coordinates":[8.9117844,48.5829537],"address":null,"type":"public_transport:stop_position"},{"name":"Ackermann Kreisel","alternativeNames":[],"localizedNames":{},"coordinates":[8.8630551,48.5748876],"address":null,"type":"tourism:attraction"},{"name":"Rüsselschnecke","alternativeNames":[],"localizedNames":{},"coordinates":[8.8533911,48.5701524],"address":null,"type":"tourism:attraction"},{"name":"Kayh Herrenberger Straße","alternativeNames":[],"localizedNames":{},"coordinates":[8.9166715,48.5760682],"address":null,"type":"public_transport:stop_position"},{"name":"Kayh Herrenberger Straße","alternativeNames":[],"localizedNames":{},"coordinates":[8.9157571,48.5759997],"address":null,"type":"public_transport:stop_position"},{"name":"Herrenberg Kreiskrankenhaus (B28)","alternativeNames":[],"localizedNames":{},"coordinates":[8.8774516,48.5917341],"address":null,"type":"public_transport:stop_position"},{"name":"Herrenberg Kreiskrankenhaus (B28)","alternativeNames":[],"localizedNames":{},"coordinates":[8.8769826,48.5920188],"address":null,"type":"public_transport:stop_position"},{"name":"Kayh Rathaus","alternativeNames":[],"localizedNames":{},"coordinates":[8.9226699,48.5766355],"address":null,"type":"public_transport:stop_position"},{"name":"Kayh Obere Äcker","alternativeNames":[],"localizedNames":{},"coordinates":[8.9279783,48.575724],"address":null,"type":"public_transport:stop_position"},{"name":"Bäckerei Wuschel","alternativeNames":[],"localizedNames":{},"coordinates":[8.9229172,48.5767266],"address":null,"type":"shop:bakery"},{"name":"Herrenberg Zwerchweg","alternativeNames":[],"localizedNames":{},"coordinates":[8.8676835,48.5850548],"address":null,"type":"public_transport:station"},{"name":"Sehne","alternativeNames":[],"localizedNames":{},"coordinates":[8.8931059,48.6233927],"address":null,"type":"shop:bakery"},{"name":"Wanner","alternativeNames":[],"localizedNames":{},"coordinates":[8.8918397,48.6229605],"address":"Hauptstraße","type":"shop:bakery"},{"name":"Seitz","alternativeNames":[],"localizedNames":{},"coordinates":[8.8891936,48.6212231],"address":null,"type":"shop:butcher"},{"name":"Dr. Stolz","alternativeNames":[],"localizedNames":{},"coordinates":[8.9228586,48.5766611],"address":null,"type":"amenity:doctors"},{"name":"Eiscafe Gelato Piu","alternativeNames":[],"localizedNames":{},"coordinates":[8.9017797,48.6421396],"address":null,"type":"amenity:cafe"},{"name":"Netto","alternativeNames":[],"localizedNames":{},"coordinates":[8.901383,48.6421541],"address":null,"type":"shop:supermarket"},{"name":"Kriegerdenkmal","alternativeNames":[],"localizedNames":{},"coordinates":[8.8988966,48.6419548],"address":null,"type":null},{"name":"Herrenberg Stadtwerke","alternativeNames":[],"localizedNames":{},"coordinates":[8.874662,48.6044011],"address":null,"type":null},{"name":"Waldhaus","alternativeNames":[],"localizedNames":{},"coordinates":[8.9658229,48.6146157],"address":null,"type":"amenity:social_facility"},{"name":"Hidden Canyon","alternativeNames":[],"localizedNames":{},"coordinates":[8.8505343,48.5804876],"address":null,"type":"tourism:attraction"},{"name":"Bienenlehrpfad","alternativeNames":[],"localizedNames":{},"coordinates":[8.8929487,48.6009549],"address":null,"type":"tourism:information"},{"name":"Bienenlehrpfad","alternativeNames":[],"localizedNames":{},"coordinates":[8.8939771,48.6015754],"address":null,"type":"tourism:information"},{"name":"Bienenlehrpfad","alternativeNames":[],"localizedNames":{},"coordinates":[8.894837,48.6019606],"address":null,"type":"tourism:information"},{"name":"Bienenlehrpfad","alternativeNames":[],"localizedNames":{},"coordinates":[8.8954499,48.6020643],"address":null,"type":"tourism:information"},{"name":"Bienenlehrpfad","alternativeNames":[],"localizedNames":{},"coordinates":[8.8974318,48.6019441],"address":null,"type":"tourism:information"},{"name":"Bienenlehrpfad","alternativeNames":[],"localizedNames":{},"coordinates":[8.8990339,48.6031279],"address":null,"type":"tourism:information"},{"name":"Bienenlehrpfad","alternativeNames":[],"localizedNames":{},"coordinates":[8.9008998,48.602316],"address":null,"type":"tourism:information"},{"name":"Königsbrünnele","alternativeNames":[],"localizedNames":{},"coordinates":[8.8974786,48.6000858],"address":null,"type":"natural:spring"},{"name":"Hildrizhausen Altes Rathaus","alternativeNames":[],"localizedNames":{},"coordinates":[8.9664798,48.6251614],"address":null,"type":"public_transport:stop_position"},{"name":"Nufringen","alternativeNames":[],"localizedNames":{},"coordinates":[8.8826426,48.6155426],"address":null,"type":null},{"name":"Gültstein Kirche","alternativeNames":[],"localizedNames":{},"coordinates":[8.8791896,48.5751892],"address":null,"type":null},{"name":"Nufringen","alternativeNames":[],"localizedNames":{},"coordinates":[8.8932395,48.628082],"address":null,"type":null},{"name":"Ammerquelle","alternativeNames":[],"localizedNames":{},"coordinates":[8.8534268,48.5840743],"address":null,"type":"natural:spring"},{"name":"back Oase","alternativeNames":[],"localizedNames":{},"coordinates":[8.864057,48.5937816],"address":"Bahnhofstraße 13/1","type":"shop:bakery"},{"name":"Jakobsbrunnen","alternativeNames":[],"localizedNames":{},"coordinates":[8.9194427,48.6110835],"address":null,"type":"natural:spring"},{"name":"Erich Kiefer Gedenktafel","alternativeNames":[],"localizedNames":{},"coordinates":[8.8977258,48.6438972],"address":null,"type":null},{"name":"Friedenslinde","alternativeNames":[],"localizedNames":{},"coordinates":[8.81228,48.6270951],"address":null,"type":"natural:tree"},{"name":"Hildrizhausen Altes Rathaus","alternativeNames":[],"localizedNames":{},"coordinates":[8.9663948,48.6251434],"address":null,"type":"public_transport:platform"},{"name":"Manfred Schütz KFZ-Service GmbH","alternativeNames":[],"localizedNames":{},"coordinates":[8.9640375,48.6274632],"address":"Gottlieb-Daimler-Straße 3","type":"shop:car_repair"},{"name":"Hibiscus-Apotheke","alternativeNames":[],"localizedNames":{},"coordinates":[8.9713985,48.6256112],"address":null,"type":"amenity:pharmacy"},{"name":"Lohrer, Willi und Ilse","alternativeNames":[],"localizedNames":{},"coordinates":[8.818528,48.5819958],"address":null,"type":null},{"name":"Mathias Kaiser","alternativeNames":[],"localizedNames":{},"coordinates":[8.9080279,48.6438551],"address":null,"type":"shop:hairdresser"},{"name":"SB-Stelle Gärtringen Grabenzentrum","alternativeNames":[],"localizedNames":{},"coordinates":[8.8976698,48.6369096],"address":null,"type":null},{"name":"Pilsstüble","alternativeNames":[],"localizedNames":{},"coordinates":[8.8976705,48.6368675],"address":null,"type":"amenity:pub"},{"name":"Aussiedlerhöfe","alternativeNames":[],"localizedNames":{},"coordinates":[8.8165489,48.5732013],"address":null,"type":null},{"name":"Aussiedlerhöfe","alternativeNames":[],"localizedNames":{},"coordinates":[8.8166882,48.5731926],"address":null,"type":null},{"name":"Nufringen","alternativeNames":[],"localizedNames":{},"coordinates":[8.8994421,48.6208318],"address":null,"type":null},{"name":"Grillhütte Nufringen","alternativeNames":[],"localizedNames":{},"coordinates":[8.8912232,48.6150282],"address":null,"type":"amenity:shelter"},{"name":"Vesna's Kneiple","alternativeNames":[],"localizedNames":{},"coordinates":[8.8544534,48.5942009],"address":"Berliner Straße 4","type":"amenity:pub"},{"name":"Gärtringen-Rathaus","alternativeNames":[],"localizedNames":{},"coordinates":[8.9025315,48.6418527],"address":null,"type":"public_transport:platform"},{"name":"Krebsbachstuben","alternativeNames":[],"localizedNames":{},"coordinates":[8.9249399,48.6215997],"address":null,"type":"amenity:restaurant"},{"name":"Metzgerei Kehgreis","alternativeNames":[],"localizedNames":{},"coordinates":[8.8995522,48.6423145],"address":null,"type":"shop:butcher"},{"name":"Stern Kebap","alternativeNames":[],"localizedNames":{},"coordinates":[8.8995149,48.6422116],"address":null,"type":"amenity:fast_food"},{"name":"Wuschels Backstub","alternativeNames":[],"localizedNames":{},"coordinates":[8.8994632,48.6421472],"address":null,"type":"shop:bakery"},{"name":"Glücksbäck","alternativeNames":[],"localizedNames":{},"coordinates":[8.895358,48.6416447],"address":"Kanalgasse 2","type":"shop:bakery"},{"name":"Trattoria Pizza+Pasta Grillhaus","alternativeNames":[],"localizedNames":{},"coordinates":[8.9039135,48.6417468],"address":null,"type":"amenity:restaurant"},{"name":"Friseur Schmid","alternativeNames":[],"localizedNames":{},"coordinates":[8.9036053,48.6417865],"address":null,"type":"shop:hairdresser"},{"name":"Metzgerei Blum","alternativeNames":[],"localizedNames":{},"coordinates":[8.8999101,48.6419124],"address":null,"type":"shop:butcher"},{"name":"DRK Ortsverein Gärtringen","alternativeNames":[],"localizedNames":{},"coordinates":[8.8944246,48.6428035],"address":null,"type":"amenity:social_facility"},{"name":"La Mamma","alternativeNames":[],"localizedNames":{},"coordinates":[8.8977329,48.6369516],"address":null,"type":"amenity:restaurant"},{"name":"Herrenberg Affstätter Tal","alternativeNames":[],"localizedNames":{},"coordinates":[8.8694525,48.6001575],"address":null,"type":null},{"name":"Sommertalbrunnen","alternativeNames":[],"localizedNames":{},"coordinates":[8.919681,48.5975939],"address":null,"type":"natural:spring"},{"name":"Einstiegspunkt Sindlingen","alternativeNames":[],"localizedNames":{},"coordinates":[8.8108756,48.5711533],"address":null,"type":"tourism:information"},{"name":"Tafel 11: Ammertal-Blick","alternativeNames":[],"localizedNames":{},"coordinates":[8.8042944,48.5692183],"address":null,"type":"tourism:information"},{"name":"Tafel 12: Franziska-von-Hohenheim-Blick","alternativeNames":[],"localizedNames":{},"coordinates":[8.8069791,48.5700007],"address":null,"type":"tourism:information"},{"name":"Tafel 13: Schloss-Blick","alternativeNames":[],"localizedNames":{},"coordinates":[8.809554,48.5705747],"address":null,"type":"tourism:information"},{"name":"Tafel 14: Blick auf die Stiftskirche","alternativeNames":[],"localizedNames":{},"coordinates":[8.8105845,48.5722721],"address":null,"type":"tourism:information"},{"name":"Heahrhäusle","alternativeNames":[],"localizedNames":{},"coordinates":[8.8766095,48.6403158],"address":"Rößeweg 29","type":"amenity:restaurant"},{"name":"Haslach Randenstraße","alternativeNames":[],"localizedNames":{},"coordinates":[8.8337899,48.5844601],"address":null,"type":null},{"name":"Haslach Randenstraße","alternativeNames":[],"localizedNames":{},"coordinates":[8.8324651,48.5848057],"address":null,"type":null},{"name":"Herrenberg Schulmeisterbuche","alternativeNames":[],"localizedNames":{},"coordinates":[8.8321936,48.5955688],"address":null,"type":null},{"name":"Herrenberg Schulmeisterbuche","alternativeNames":[],"localizedNames":{},"coordinates":[8.8307525,48.5957891],"address":null,"type":null},{"name":"ZOB Kalkofenstraße Steig 1","alternativeNames":[],"localizedNames":{},"coordinates":[8.8616239,48.5943967],"address":null,"type":"public_transport:platform"},{"name":"ZOB Kalkofenstraße Steig 2","alternativeNames":[],"localizedNames":{},"coordinates":[8.8613365,48.5942866],"address":null,"type":"public_transport:platform"},{"name":"ZOB Kalkofenstraße Steig 3","alternativeNames":[],"localizedNames":{},"coordinates":[8.8610887,48.594192],"address":null,"type":"public_transport:platform"},{"name":"Nagel's Backstube","alternativeNames":[],"localizedNames":{},"coordinates":[8.8998061,48.6419319],"address":"Hauptstraße 8","type":"shop:bakery"},{"name":"Orient Kebap","alternativeNames":[],"localizedNames":{},"coordinates":[8.8635872,48.5940352],"address":null,"type":"amenity:fast_food"},{"name":"Pizzeria la bella Sicilia","alternativeNames":[],"localizedNames":{},"coordinates":[8.8704536,48.5974109],"address":null,"type":"amenity:restaurant"},{"name":"Gaetano's Pizza Express","alternativeNames":[],"localizedNames":{},"coordinates":[8.8724622,48.5949842],"address":"Hasenplatz 9","type":"amenity:fast_food"},{"name":"Doline","alternativeNames":[],"localizedNames":{},"coordinates":[8.8121679,48.5914337],"address":null,"type":null},{"name":"Florians Bänkle","alternativeNames":[],"localizedNames":{},"coordinates":[8.9726508,48.6212092],"address":null,"type":"amenity:bench"},{"name":"Gärtringen-Bahnhof","alternativeNames":[],"localizedNames":{},"coordinates":[8.9088461,48.6410248],"address":null,"type":null},{"name":"Schwarzwaldstraße","alternativeNames":[],"localizedNames":{},"coordinates":[8.8934444,48.6391795],"address":null,"type":"public_transport:stop_position"},{"name":"Grabenstraße","alternativeNames":[],"localizedNames":{},"coordinates":[8.8937435,48.6366371],"address":null,"type":"public_transport:stop_position"},{"name":"Rohrau Rathaus","alternativeNames":[],"localizedNames":{},"coordinates":[8.9236044,48.6252545],"address":null,"type":null},{"name":"Reiterstüble","alternativeNames":[],"localizedNames":{},"coordinates":[8.8753184,48.6411431],"address":null,"type":"amenity:restaurant"},{"name":"Körber GmbH","alternativeNames":[],"localizedNames":{},"coordinates":[8.8963514,48.6424926],"address":null,"type":"shop:optician"},{"name":"Binder Optik","alternativeNames":[],"localizedNames":{},"coordinates":[8.8697804,48.5948285],"address":"Schulstraße 11","type":"shop:optician"},{"name":"Sunlight Lounge","alternativeNames":[],"localizedNames":{},"coordinates":[8.8714411,48.5943487],"address":"Hindenburgstraße 34","type":"shop:beauty"},{"name":"Cremagelato","alternativeNames":[],"localizedNames":{},"coordinates":[8.8720048,48.594733],"address":"Hasenplatz 1","type":"amenity:cafe"},{"name":"Adlerbrunnen","alternativeNames":[],"localizedNames":{},"coordinates":[8.8713687,48.5952689],"address":null,"type":"amenity:fountain"},{"name":"Herrenberg","alternativeNames":[],"localizedNames":{},"coordinates":[8.8629507,48.5940049],"address":null,"type":"public_transport:stop_position"},{"name":"Signal","alternativeNames":[],"localizedNames":{},"coordinates":[8.8635657,48.5939726],"address":"Bahnhofstraße 12","type":"amenity:restaurant"},{"name":"Eckert","alternativeNames":[],"localizedNames":{},"coordinates":[8.8634267,48.5939288],"address":"Bahnhofstraße","type":"shop:kiosk"},{"name":"1 Hofkammerwald","alternativeNames":[],"localizedNames":{},"coordinates":[8.8124322,48.5808703],"address":null,"type":null},{"name":"5 Spitzhau","alternativeNames":[],"localizedNames":{},"coordinates":[8.8106394,48.5895708],"address":null,"type":null},{"name":"4 Alexandersgrund","alternativeNames":[],"localizedNames":{},"coordinates":[8.8113818,48.5889858],"address":null,"type":null},{"name":"2 Hint. Spitalwald","alternativeNames":[],"localizedNames":{},"coordinates":[8.8121464,48.5907387],"address":null,"type":null},{"name":"4 Alexandersgrund","alternativeNames":[],"localizedNames":{},"coordinates":[8.8119419,48.5901574],"address":null,"type":null},{"name":"4 Alexandersgrund","alternativeNames":[],"localizedNames":{},"coordinates":[8.8175332,48.5871027],"address":null,"type":null},{"name":"3 Beckenmichel","alternativeNames":[],"localizedNames":{},"coordinates":[8.8211089,48.589105],"address":null,"type":null},{"name":"2 Hint. Spitalwald","alternativeNames":[],"localizedNames":{},"coordinates":[8.8178395,48.5921402],"address":null,"type":null},{"name":"Herrenberger Arboretum","alternativeNames":[],"localizedNames":{},"coordinates":[8.8202659,48.5898939],"address":null,"type":"tourism:information"},{"name":"3 Beckenmichel","alternativeNames":[],"localizedNames":{},"coordinates":[8.8240052,48.5886564],"address":null,"type":null},{"name":"alte Grenzsteine","alternativeNames":[],"localizedNames":{},"coordinates":[8.824555,48.5931831],"address":null,"type":"tourism:information"},{"name":"1 Vord. Spitalwald","alternativeNames":[],"localizedNames":{},"coordinates":[8.8273533,48.5949028],"address":null,"type":null},{"name":"Wanderparkplatz Schulmeisterbuche","alternativeNames":[],"localizedNames":{},"coordinates":[8.8295535,48.59498],"address":null,"type":"tourism:information"},{"name":"6 Hoher Markstein","alternativeNames":[],"localizedNames":{},"coordinates":[8.7983211,48.597963],"address":null,"type":null},{"name":"5 Reute","alternativeNames":[],"localizedNames":{},"coordinates":[8.798825,48.5975763],"address":null,"type":null},{"name":"5 Reute","alternativeNames":[],"localizedNames":{},"coordinates":[8.798878,48.5977522],"address":null,"type":null},{"name":"3 Martinslaile","alternativeNames":[],"localizedNames":{},"coordinates":[8.7993163,48.6034584],"address":null,"type":null},{"name":"5 Reute","alternativeNames":[],"localizedNames":{},"coordinates":[8.804674,48.6009235],"address":null,"type":null},{"name":"3 Martinslaile","alternativeNames":[],"localizedNames":{},"coordinates":[8.8062561,48.6033281],"address":null,"type":null},{"name":"4 Forstknechtsstein","alternativeNames":[],"localizedNames":{},"coordinates":[8.79918,48.6035248],"address":null,"type":null},{"name":"1 Rückle","alternativeNames":[],"localizedNames":{},"coordinates":[8.805534,48.6075237],"address":null,"type":null},{"name":"3 Hummelberg","alternativeNames":[],"localizedNames":{},"coordinates":[8.8063172,48.6081304],"address":null,"type":null},{"name":"1 Rückle","alternativeNames":[],"localizedNames":{},"coordinates":[8.8052417,48.610557],"address":null,"type":null},{"name":"Pflugspitzhütte","alternativeNames":[],"localizedNames":{},"coordinates":[8.9371342,48.5922982],"address":null,"type":"amenity:shelter"},{"name":"Marktplatz","alternativeNames":[],"localizedNames":{},"coordinates":[8.895738,48.6412433],"address":null,"type":"amenity:marketplace"},{"name":"Aussiedlerhöfe","alternativeNames":[],"localizedNames":{},"coordinates":[8.8292002,48.5910044],"address":null,"type":null},{"name":"Aussiedlerhöfe","alternativeNames":[],"localizedNames":{},"coordinates":[8.8294752,48.5913541],"address":null,"type":null},{"name":"Brasil","alternativeNames":[],"localizedNames":{},"coordinates":[8.834735,48.6239729],"address":null,"type":"amenity:pub"},{"name":"Die Auferstehung des Künstlers","alternativeNames":[],"localizedNames":{},"coordinates":[8.868891,48.5958205],"address":null,"type":"tourism:artwork"},{"name":"Bronntor","alternativeNames":[],"localizedNames":{},"coordinates":[8.8681544,48.5957991],"address":null,"type":"amenity:parking_entrance"},{"name":"Ristorante La Pineta","alternativeNames":[],"localizedNames":{},"coordinates":[8.9059785,48.6410555],"address":"Stuttgarter Straße 1","type":"amenity:restaurant"},{"name":"La Pineta Fremdenzimmer","alternativeNames":[],"localizedNames":{},"coordinates":[8.9059624,48.6409887],"address":"Stuttgarter Straße 1","type":"tourism:hotel"},{"name":"Akropolis","alternativeNames":[],"localizedNames":{},"coordinates":[8.8797534,48.574093],"address":"Kappstraße 21","type":"amenity:restaurant"},{"name":"Löwe Textilreinigung","alternativeNames":[],"localizedNames":{},"coordinates":[8.9060949,48.6398701],"address":null,"type":"shop:dry_cleaning"},{"name":"Elektro Bühler","alternativeNames":[],"localizedNames":{},"coordinates":[8.8959546,48.6425004],"address":null,"type":"shop:electronics"},{"name":"Braut Boutique - Wedding Dresses by Theresa","alternativeNames":[],"localizedNames":{},"coordinates":[8.8954173,48.642514],"address":null,"type":"shop:boutique"},{"name":"Schnepfenhütte","alternativeNames":[],"localizedNames":{},"coordinates":[8.9682986,48.5809606],"address":null,"type":"amenity:shelter"},{"name":"Schnepfeneiche","alternativeNames":[],"localizedNames":{},"coordinates":[8.968637,48.580652],"address":null,"type":"natural:tree"},{"name":"Herrenberg Stadthalle","alternativeNames":[],"localizedNames":{},"coordinates":[8.869852,48.5981054],"address":null,"type":"public_transport:platform"},{"name":"Herrenberg Porschestraße","alternativeNames":[],"localizedNames":{},"coordinates":[8.8710878,48.6038138],"address":null,"type":null},{"name":"Herrenberg Lämmleshalde","alternativeNames":[],"localizedNames":{},"coordinates":[8.8736877,48.6012274],"address":null,"type":null},{"name":"Event-Media-Tec GmbH","alternativeNames":[],"localizedNames":{},"coordinates":[8.8941479,48.5746778],"address":"Marie-Curie-Straße 2","type":"office:company"},{"name":"Huppert GmbH","alternativeNames":[],"localizedNames":{},"coordinates":[8.8851438,48.5778803],"address":"Behringstraße 15","type":"office:company"},{"name":"TÜV Süd Service Center Herrenberg","alternativeNames":[],"localizedNames":{},"coordinates":[8.8896915,48.5776084],"address":"Heerstraße 2","type":"amenity:vehicle_inspection"},{"name":"Areus Engineering GmbH","alternativeNames":[],"localizedNames":{},"coordinates":[8.8937012,48.5756044],"address":"Einsteinstraße 13","type":"office:company"},{"name":"Reiff Reifen und Autotechnik GmbH","alternativeNames":[],"localizedNames":{},"coordinates":[8.8891606,48.5772956],"address":"Heerstraße 2","type":"shop:car_repair"},{"name":"CLAAS Württemberg GmbH","alternativeNames":[],"localizedNames":{},"coordinates":[8.8888686,48.5776186],"address":"Heerstraße 2","type":"shop:car_repair"},{"name":"Gemeinschaftspraxis Giolai & Rebstock","alternativeNames":[],"localizedNames":{},"coordinates":[8.9012645,48.6418965],"address":null,"type":"amenity:doctors"},{"name":"NKD","alternativeNames":[],"localizedNames":{},"coordinates":[8.9011237,48.6418875],"address":null,"type":"shop:clothes"},{"name":"Gärtringer Änderungsschneiderei","alternativeNames":[],"localizedNames":{},"coordinates":[8.9014479,48.6419127],"address":null,"type":"craft:tailor"},{"name":"Gärtringen","alternativeNames":[],"localizedNames":{},"coordinates":[8.9088686,48.6409703],"address":null,"type":"tourism:information"},{"name":"Ärztezentrum Gärtringen","alternativeNames":[],"localizedNames":{},"coordinates":[8.8994567,48.6422894],"address":null,"type":"amenity:doctors"},{"name":"Wanner","alternativeNames":[],"localizedNames":{},"coordinates":[8.8978222,48.6368193],"address":"Grabenstraße 62a","type":"amenity:cafe"},{"name":"Dr. Peter Heinkele","alternativeNames":[],"localizedNames":{},"coordinates":[8.9041726,48.6413296],"address":null,"type":"amenity:dentist"},{"name":"Bushaltestelle Calwer Str. Linie 733","alternativeNames":[],"localizedNames":{},"coordinates":[8.8337757,48.6248114],"address":null,"type":null},{"name":"Das Blumenleben","alternativeNames":[],"localizedNames":{},"coordinates":[8.9000494,48.6419017],"address":null,"type":"shop:florist"},{"name":"Ludwig-Uhland-Grund und Hauptschule","alternativeNames":[],"localizedNames":{},"coordinates":[8.9029821,48.6440216],"address":null,"type":"amenity:parking"},{"name":"Magic Hair","alternativeNames":[],"localizedNames":{},"coordinates":[8.9028316,48.6375155],"address":null,"type":"shop:hairdresser"},{"name":"Trelleborg Sealing Solutions Germany GmbH","alternativeNames":[],"localizedNames":{},"coordinates":[8.9108361,48.6412541],"address":null,"type":null},{"name":"Villa Schwalbenhof","alternativeNames":[],"localizedNames":{},"coordinates":[8.8979161,48.6442802],"address":null,"type":"amenity:parking"},{"name":"Dr. med. dent. Wolfgang Heer","alternativeNames":[],"localizedNames":{},"coordinates":[8.8944218,48.6407267],"address":null,"type":"amenity:dentist"},{"name":"Regina Neumann und Dr. med. dent. Anja Mess","alternativeNames":[],"localizedNames":{},"coordinates":[8.8975291,48.6371824],"address":null,"type":"amenity:dentist"},{"name":"Dr. med Sabine Fuchs-Erhardt","alternativeNames":[],"localizedNames":{},"coordinates":[8.8951723,48.6408658],"address":null,"type":"amenity:doctors"},{"name":"Raumdesign Atalay","alternativeNames":[],"localizedNames":{},"coordinates":[8.9010226,48.64188],"address":null,"type":"shop:doityourself"},{"name":"Sellis HAIRSTYLE","alternativeNames":[],"localizedNames":{},"coordinates":[8.8962829,48.6427035],"address":null,"type":"shop:hairdresser"},{"name":"Gültstein","alternativeNames":[],"localizedNames":{},"coordinates":[8.8830389,48.5807924],"address":null,"type":null},{"name":"X-Change-Guitars","alternativeNames":[],"localizedNames":{},"coordinates":[8.9008731,48.6404066],"address":null,"type":"shop:musical_instrument"},{"name":"Fahrschule Erich Obermeyer","alternativeNames":[],"localizedNames":{},"coordinates":[8.9010106,48.6409643],"address":null,"type":"amenity:driving_school"},{"name":"Klink & Dühnen","alternativeNames":[],"localizedNames":{},"coordinates":[8.8894411,48.6417728],"address":"Fliederweg 25","type":"amenity:veterinary"},{"name":"Da Peppe","alternativeNames":[],"localizedNames":{},"coordinates":[8.8878932,48.644092],"address":"An der Schwarzwaldhalle 17","type":"amenity:restaurant"},{"name":"Moritz Müssig GmbH","alternativeNames":[],"localizedNames":{},"coordinates":[8.9090768,48.6372998],"address":null,"type":"craft:stairs"},{"name":"FEMOS gGmbH","alternativeNames":[],"localizedNames":{},"coordinates":[8.909111,48.6364872],"address":null,"type":null},{"name":"Assfalg und Haase Karosseriebau","alternativeNames":[],"localizedNames":{},"coordinates":[8.9110011,48.6367207],"address":null,"type":"shop:car_repair"},{"name":"RA-MICRO Gärtringen","alternativeNames":[],"localizedNames":{},"coordinates":[8.9044589,48.6391276],"address":null,"type":"office:company"},{"name":"Ev. Kirche","alternativeNames":[],"localizedNames":{},"coordinates":[8.8979081,48.6417089],"address":null,"type":"amenity:parking"},{"name":"Schwabo Autoglas Gärtringen","alternativeNames":[],"localizedNames":{},"coordinates":[8.9044408,48.6389577],"address":null,"type":"shop:car_repair"},{"name":"KNAUSS GmbH Armaturenfabrik","alternativeNames":[],"localizedNames":{},"coordinates":[8.9044247,48.6388442],"address":null,"type":"office:company"},{"name":"Friseursalon Haarspitze","alternativeNames":[],"localizedNames":{},"coordinates":[8.8946302,48.6416073],"address":null,"type":"shop:hairdresser"},{"name":"BAUCONCEPT","alternativeNames":[],"localizedNames":{},"coordinates":[8.8981089,48.6413573],"address":null,"type":null},{"name":"Sehne","alternativeNames":[],"localizedNames":{},"coordinates":[8.901295,48.6421369],"address":null,"type":"shop:bakery"},{"name":"Traufblick","alternativeNames":[],"localizedNames":{},"coordinates":[8.9333856,48.6242544],"address":null,"type":"tourism:viewpoint"},{"name":"Sportgaststätte TSV Hildrizhausen","alternativeNames":[],"localizedNames":{},"coordinates":[8.9466427,48.6179274],"address":null,"type":"amenity:restaurant"},{"name":"Feuerwehr Rohrau","alternativeNames":[],"localizedNames":{},"coordinates":[8.9206751,48.6263424],"address":null,"type":"amenity:fire_station"},{"name":"Plattenbrünnele","alternativeNames":[],"localizedNames":{},"coordinates":[8.9494573,48.6342902],"address":null,"type":"tourism:picnic_site"},{"name":"Försterstein","alternativeNames":[],"localizedNames":{},"coordinates":[8.9709632,48.5997508],"address":null,"type":null},{"name":"Freiwillige Feuerwehr Herrenberg-Haslach","alternativeNames":[],"localizedNames":{},"coordinates":[8.8303055,48.5834651],"address":null,"type":"amenity:fire_station"},{"name":"Gemeinschaftspraxis für Allgemeinmedizin","alternativeNames":[],"localizedNames":{},"coordinates":[8.8982979,48.6368586],"address":null,"type":"amenity:doctors"},{"name":"Herrenberg ZOB","alternativeNames":[],"localizedNames":{},"coordinates":[8.8647147,48.5944079],"address":null,"type":"public_transport:stop_position"},{"name":"Lamm","alternativeNames":[],"localizedNames":{},"coordinates":[8.9578532,48.5710354],"address":null,"type":"public_transport:platform"},{"name":"Kinder- und Jugendarztpraxis Wolfgang Böse","alternativeNames":[],"localizedNames":{},"coordinates":[8.89571,48.6420873],"address":null,"type":"amenity:doctors"},{"name":"Panda","alternativeNames":[],"localizedNames":{},"coordinates":[8.858834,48.5954568],"address":"Steinbeisstraße 13","type":"amenity:restaurant"},{"name":"Ferienwohnungen Wartner","alternativeNames":[],"localizedNames":{"en":"Holiday flats Wartner"},"coordinates":[8.86532,48.5941894],"address":"Bahnhofstraße 3","type":"tourism:apartment"},{"name":"Oxidio","alternativeNames":[],"localizedNames":{},"coordinates":[8.9029101,48.6392356],"address":"Blücherstraße 13","type":"amenity:dentist"},{"name":"PROTEC24 FACILITY SERVICE","alternativeNames":[],"localizedNames":{},"coordinates":[8.9056754,48.6396529],"address":null,"type":"craft:facility_service"},{"name":"Steinhofs","alternativeNames":[],"localizedNames":{},"coordinates":[8.9138556,48.6386231],"address":null,"type":"leisure:sports_centre"},{"name":"Hahnenbühl","alternativeNames":[],"localizedNames":{},"coordinates":[8.9562132,48.6072241],"address":null,"type":"tourism:picnic_site"},{"name":"Teufelsbrunnen","alternativeNames":[],"localizedNames":{},"coordinates":[8.9655462,48.5982323],"address":null,"type":"natural:spring"},{"name":"8 Klosterwald","alternativeNames":[],"localizedNames":{},"coordinates":[8.8010028,48.5936867],"address":null,"type":null},{"name":"8 Klosterwald","alternativeNames":[],"localizedNames":{},"coordinates":[8.8072973,48.5963616],"address":null,"type":null},{"name":"11 Otternzipfel","alternativeNames":[],"localizedNames":{},"coordinates":[8.8215157,48.6006594],"address":null,"type":null},{"name":"Wankmueller","alternativeNames":[],"localizedNames":{},"coordinates":[8.898164,48.6315158],"address":null,"type":"amenity:fuel"},{"name":"Waldspielplatz Rohrau","alternativeNames":[],"localizedNames":{},"coordinates":[8.9337865,48.6247698],"address":null,"type":"leisure:playground"},{"name":"Herrenberg Herzogweg","alternativeNames":[],"localizedNames":{},"coordinates":[8.8825921,48.597661],"address":null,"type":null},{"name":"Spielplatz Freizeithütte Nufringen","alternativeNames":[],"localizedNames":{},"coordinates":[8.8913023,48.6148677],"address":null,"type":"leisure:playground"},{"name":"Alte Linde","alternativeNames":[],"localizedNames":{},"coordinates":[8.9699464,48.6342339],"address":null,"type":"natural:tree"},{"name":"Rohrau","alternativeNames":[],"localizedNames":{},"coordinates":[8.9302207,48.6281257],"address":null,"type":null},{"name":"Öfele","alternativeNames":[],"localizedNames":{},"coordinates":[8.7970663,48.5868847],"address":null,"type":null},{"name":"Haslach Schelmenäcker","alternativeNames":[],"localizedNames":{},"coordinates":[8.834547,48.5803256],"address":null,"type":null},{"name":"Bahnhof","alternativeNames":[],"localizedNames":{},"coordinates":[8.8642448,48.5940387],"address":null,"type":"tourism:information"},{"name":"Herrenplatte","alternativeNames":[],"localizedNames":{},"coordinates":[8.7944282,48.5883452],"address":null,"type":"tourism:information"},{"name":"Herrenberg","alternativeNames":[],"localizedNames":{},"coordinates":[8.8620623,48.5935506],"address":null,"type":null},{"name":"Herrenberg","alternativeNames":[],"localizedNames":{},"coordinates":[8.8629217,48.594059],"address":null,"type":"public_transport:station"},{"name":"Haarschnitt","alternativeNames":[],"localizedNames":{},"coordinates":[8.8961581,48.642743],"address":null,"type":"shop:hairdresser"},{"name":"Sunlight Sonnenstudio","alternativeNames":[],"localizedNames":{},"coordinates":[8.8960391,48.6428254],"address":null,"type":"leisure:tanning_salon"},{"name":"Ihr-Tanzladen","alternativeNames":[],"localizedNames":{},"coordinates":[8.9027001,48.637506],"address":null,"type":"shop:boutique"},{"name":"Naturheilpraxis birgit euteneuer","alternativeNames":[],"localizedNames":{},"coordinates":[8.8975726,48.6371027],"address":null,"type":null},{"name":"Oberjesinger Sportplatz","alternativeNames":[],"localizedNames":{},"coordinates":[8.8098412,48.6227214],"address":null,"type":"tourism:information"},{"name":"Kuppinger Sportplatz","alternativeNames":[],"localizedNames":{},"coordinates":[8.8069556,48.6032056],"address":null,"type":"tourism:information"},{"name":"Heselschwerdtstein","alternativeNames":[],"localizedNames":{},"coordinates":[8.8004691,48.6017202],"address":null,"type":null},{"name":"Grenzweg","alternativeNames":[],"localizedNames":{},"coordinates":[8.8513701,48.6402596],"address":null,"type":"tourism:information"},{"name":"Thermikstüble","alternativeNames":[],"localizedNames":{},"coordinates":[8.8115516,48.6373936],"address":null,"type":"amenity:restaurant"},{"name":"Sindlingen","alternativeNames":[],"localizedNames":{},"coordinates":[8.8098458,48.5703119],"address":null,"type":null},{"name":"Kohltor","alternativeNames":[],"localizedNames":{},"coordinates":[8.9678565,48.6130522],"address":null,"type":"tourism:information"},{"name":"Kohlweiher","alternativeNames":[],"localizedNames":{},"coordinates":[8.9692604,48.6083982],"address":null,"type":"tourism:picnic_site"},{"name":"Gottlob-Reichardt-Stein","alternativeNames":[],"localizedNames":{},"coordinates":[8.9492247,48.617566],"address":null,"type":null},{"name":"Breiter Stein","alternativeNames":[],"localizedNames":{},"coordinates":[8.9206403,48.6056523],"address":null,"type":null},{"name":"Joh.-Schwarz-Stein","alternativeNames":[],"localizedNames":{},"coordinates":[8.9240056,48.5948492],"address":null,"type":null},{"name":"Neurathstein","alternativeNames":[],"localizedNames":{},"coordinates":[8.931046,48.600427],"address":null,"type":null},{"name":"Peter-Schanz-Stein","alternativeNames":[],"localizedNames":{},"coordinates":[8.9151425,48.5938332],"address":null,"type":null},{"name":"Martinstein","alternativeNames":[],"localizedNames":{},"coordinates":[8.9049543,48.6089162],"address":null,"type":null},{"name":"Ruthardskreuz","alternativeNames":[],"localizedNames":{},"coordinates":[8.9440152,48.6014593],"address":null,"type":null},{"name":"Dr. Hans Sebastian","alternativeNames":[],"localizedNames":{},"coordinates":[8.857175,48.5952909],"address":"Steinbeisstraße 8","type":"amenity:dentist"},{"name":"Gärtringen","alternativeNames":[],"localizedNames":{},"coordinates":[8.9089409,48.6407967],"address":null,"type":"public_transport:stop_position"},{"name":"Hammer","alternativeNames":[],"localizedNames":{},"coordinates":[8.8532904,48.5946056],"address":null,"type":"shop:hairdresser"},{"name":"Dianas Hairdressing","alternativeNames":[],"localizedNames":{},"coordinates":[8.8680751,48.594921],"address":"Hindenburgstraße 10","type":"shop:hairdresser"},{"name":"Die kleine Altstadtbäckerei","alternativeNames":[],"localizedNames":{},"coordinates":[8.8714874,48.5953822],"address":null,"type":"shop:bakery"},{"name":"Hirschstube","alternativeNames":[],"localizedNames":{},"coordinates":[8.8715359,48.5953726],"address":null,"type":"amenity:restaurant"},{"name":"Hermes Paketshop in Wäscherei","alternativeNames":[],"localizedNames":{},"coordinates":[8.8710752,48.5979647],"address":null,"type":"amenity:post_office"},{"name":"Ranzenspanner","alternativeNames":[],"localizedNames":{},"coordinates":[8.8647142,48.59401],"address":null,"type":"amenity:pub"},{"name":"Andy","alternativeNames":[],"localizedNames":{},"coordinates":[8.8647544,48.5940295],"address":null,"type":"shop:hairdresser"},{"name":"Lehmgrube","alternativeNames":[],"localizedNames":{},"coordinates":[8.8080635,48.6410892],"address":null,"type":"tourism:information"},{"name":"Segelflugplatz","alternativeNames":[],"localizedNames":{},"coordinates":[8.8105633,48.6378493],"address":null,"type":"tourism:information"},{"name":"Dreiländereck","alternativeNames":[],"localizedNames":{},"coordinates":[8.7959947,48.6347658],"address":null,"type":"tourism:information"},{"name":"Schwarzwaldblick","alternativeNames":[],"localizedNames":{},"coordinates":[8.7937191,48.6364115],"address":null,"type":"tourism:information"},{"name":"Heilig Kreuz","alternativeNames":[],"localizedNames":{},"coordinates":[8.8258402,48.6412816],"address":null,"type":"tourism:information"},{"name":"Shannon Irish Pub","alternativeNames":[],"localizedNames":{},"coordinates":[8.8702811,48.5948573],"address":"Auf dem Graben 12","type":"amenity:pub"},{"name":"Kegreis","alternativeNames":[],"localizedNames":{},"coordinates":[8.8778601,48.5732912],"address":null,"type":"shop:butcher"},{"name":"Herrenberg ZOB","alternativeNames":[],"localizedNames":{},"coordinates":[8.8639175,48.5941319],"address":null,"type":"public_transport:stop_position"},{"name":"Herrenberg ZOB","alternativeNames":[],"localizedNames":{},"coordinates":[8.8643447,48.5942815],"address":null,"type":"public_transport:stop_position"},{"name":"WohnPlan Objektbetreuung","alternativeNames":[],"localizedNames":{},"coordinates":[8.8701998,48.5947796],"address":"Hindenburgstraße 13","type":"office:real estate management"},{"name":"Schömberg","alternativeNames":[],"localizedNames":{},"coordinates":[8.8324743,48.6412161],"address":null,"type":"tourism:information"},{"name":"RS-Autovermietung","alternativeNames":[],"localizedNames":{},"coordinates":[8.8576631,48.595247],"address":null,"type":"amenity:car_rental"},{"name":"Mischwald","alternativeNames":[],"localizedNames":{},"coordinates":[8.8218804,48.5926866],"address":null,"type":"tourism:information"},{"name":"Trockental","alternativeNames":[],"localizedNames":{},"coordinates":[8.8225747,48.5887219],"address":null,"type":"tourism:information"},{"name":"Böckleshütte","alternativeNames":[],"localizedNames":{},"coordinates":[8.9545568,48.5960261],"address":null,"type":"amenity:shelter"},{"name":"Denkmal Turnverein","alternativeNames":[],"localizedNames":{},"coordinates":[8.8945321,48.6039513],"address":null,"type":null},{"name":"Kalter Brunnen","alternativeNames":[],"localizedNames":{},"coordinates":[8.9159289,48.6059663],"address":null,"type":"natural:spring"},{"name":"Eingang Volksbankstadion","alternativeNames":[],"localizedNames":{},"coordinates":[8.8638947,48.5980013],"address":null,"type":null},{"name":"Herrenberg Herzogweg","alternativeNames":[],"localizedNames":{},"coordinates":[8.8826828,48.5976482],"address":null,"type":null},{"name":"Grenzstein Henkelbaum 1","alternativeNames":[],"localizedNames":{},"coordinates":[8.9193767,48.6071794],"address":null,"type":null},{"name":"Grenzstein Henkelbaum 2","alternativeNames":[],"localizedNames":{},"coordinates":[8.92017,48.60767],"address":null,"type":null},{"name":"Grenzstein Waldvogtswald","alternativeNames":[],"localizedNames":{},"coordinates":[8.9159777,48.6152035],"address":null,"type":null},{"name":"Grenzstein Henkelbaum 3","alternativeNames":[],"localizedNames":{},"coordinates":[8.91267,48.609],"address":null,"type":null},{"name":"Urenkeleiche","alternativeNames":[],"localizedNames":{},"coordinates":[8.910162,48.5943693],"address":null,"type":"natural:tree"},{"name":"Sindlingen","alternativeNames":[],"localizedNames":{},"coordinates":[8.809982,48.5705855],"address":null,"type":"public_transport:stop_position"},{"name":"Sindlingen","alternativeNames":[],"localizedNames":{},"coordinates":[8.8104884,48.5709533],"address":null,"type":"public_transport:stop_position"},{"name":"Freßeiche","alternativeNames":[],"localizedNames":{},"coordinates":[8.9410728,48.5940326],"address":null,"type":"natural:tree"},{"name":"Zwölf Buchen","alternativeNames":[],"localizedNames":{},"coordinates":[8.9492792,48.5965775],"address":null,"type":"natural:tree"},{"name":"Schöne Forche","alternativeNames":[],"localizedNames":{},"coordinates":[8.9086081,48.5953088],"address":null,"type":"natural:tree"},{"name":"Förstereiche","alternativeNames":[],"localizedNames":{},"coordinates":[8.9707138,48.5997647],"address":null,"type":"natural:tree"},{"name":"Prinz Friedrich Eiche","alternativeNames":[],"localizedNames":{},"coordinates":[8.95572,48.6078082],"address":null,"type":"natural:tree"},{"name":"Plattenbrünnele","alternativeNames":[],"localizedNames":{},"coordinates":[8.9502697,48.6342567],"address":null,"type":"natural:spring"},{"name":"Müller","alternativeNames":[],"localizedNames":{},"coordinates":[8.8680869,48.5962832],"address":"Bronntor 1","type":"shop:chemist"},{"name":"Copythek Klaus Weber","alternativeNames":[],"localizedNames":{},"coordinates":[8.8706871,48.5930518],"address":"Gültsteiner Straße 9/1","type":"shop:copyshop"},{"name":"Sardegna","alternativeNames":[],"localizedNames":{},"coordinates":[8.8426333,48.6128214],"address":null,"type":"amenity:restaurant"},{"name":"stadtmobil","alternativeNames":[],"localizedNames":{},"coordinates":[8.8622458,48.593325],"address":null,"type":"amenity:car_sharing"},{"name":"Mariengarage Herrenberg","alternativeNames":[],"localizedNames":{},"coordinates":[8.8715144,48.5944942],"address":null,"type":"amenity:car_sharing"},{"name":"Fischbach-Hütte","alternativeNames":[],"localizedNames":{},"coordinates":[8.961542,48.5875133],"address":null,"type":"amenity:shelter"},{"name":"Große Linde","alternativeNames":[],"localizedNames":{},"coordinates":[8.9642979,48.5880925],"address":null,"type":"natural:tree"},{"name":"Lausterereiche","alternativeNames":[],"localizedNames":{},"coordinates":[8.9691495,48.6087125],"address":null,"type":"natural:tree"},{"name":"Blozmilchbrunnen","alternativeNames":[],"localizedNames":{},"coordinates":[8.8638821,48.6400693],"address":null,"type":"man_made:water_well"},{"name":"Rößebrunnen","alternativeNames":[],"localizedNames":{},"coordinates":[8.8777796,48.6402552],"address":null,"type":"man_made:water_well"},{"name":"Hirschteicheiche","alternativeNames":[],"localizedNames":{},"coordinates":[8.9727009,48.6022455],"address":null,"type":"natural:tree"},{"name":"Hubertuseiche","alternativeNames":[],"localizedNames":{},"coordinates":[8.9660266,48.6067623],"address":null,"type":"natural:tree"},{"name":"Drei-Eichen-Hütte","alternativeNames":[],"localizedNames":{},"coordinates":[8.9315053,48.6053662],"address":null,"type":"amenity:shelter"},{"name":"13 Buchen","alternativeNames":[],"localizedNames":{},"coordinates":[8.9188859,48.6002083],"address":null,"type":"natural:tree"},{"name":"Eiche am Roten Meer","alternativeNames":[],"localizedNames":{},"coordinates":[8.8836855,48.6034799],"address":null,"type":"natural:tree"},{"name":"Mittleres Häusle","alternativeNames":[],"localizedNames":{},"coordinates":[8.9363188,48.5987096],"address":null,"type":"amenity:shelter"},{"name":"Ludwigseiche","alternativeNames":[],"localizedNames":{},"coordinates":[8.9348309,48.5842368],"address":null,"type":"natural:tree"},{"name":"Zeppelineiche","alternativeNames":[],"localizedNames":{},"coordinates":[8.9263442,48.583258],"address":null,"type":"natural:tree"},{"name":"Tränkebrunnen","alternativeNames":[],"localizedNames":{},"coordinates":[8.9679834,48.5882546],"address":null,"type":"natural:spring"},{"name":"Grenzstein Henkelbaum 4","alternativeNames":[],"localizedNames":{},"coordinates":[8.922946,48.6086346],"address":null,"type":null},{"name":"Grenzstein Henkelbaum 5","alternativeNames":[],"localizedNames":{},"coordinates":[8.9253453,48.609325],"address":null,"type":null},{"name":"Atelier","alternativeNames":[],"localizedNames":{},"coordinates":[8.8708172,48.5955443],"address":null,"type":"amenity:cafe"},{"name":"Dr. med. E. Reichert Internistin Gastroenterologie","alternativeNames":[],"localizedNames":{},"coordinates":[8.8917433,48.6226765],"address":"Hauptstraße 30","type":"amenity:doctors"},{"name":"Dr. med. W. Reichert Arzt für Allgmeinmedizin","alternativeNames":[],"localizedNames":{},"coordinates":[8.8917306,48.6226927],"address":"Hauptstraße 30","type":"amenity:doctors"},{"name":"Dr. med. dent. H. P. Platten Zahnarzt für Oralchirurgie","alternativeNames":[],"localizedNames":{},"coordinates":[8.8917552,48.6226975],"address":"Hauptstraße 30","type":"amenity:dentist"},{"name":"Dr. med. dent. V. Knapp Zahnarzt für Oralchirurgie","alternativeNames":[],"localizedNames":{},"coordinates":[8.8917679,48.6226817],"address":"Hauptstraße 30","type":"amenity:dentist"},{"name":"Kfz-Zulassungsstelle","alternativeNames":[],"localizedNames":{},"coordinates":[8.8557602,48.5946221],"address":"Berliner Straße 1","type":"office:government"},{"name":"Sonntag Sonnenschutzsysteme","alternativeNames":[],"localizedNames":{},"coordinates":[8.8652755,48.5936456],"address":null,"type":"shop:yes"},{"name":"VHS Herrenberg","alternativeNames":[],"localizedNames":{},"coordinates":[8.8735124,48.5940213],"address":null,"type":"amenity:school"},{"name":"Grenzstein 013","alternativeNames":[],"localizedNames":{},"coordinates":[8.9699966,48.5789924],"address":null,"type":null},{"name":"Parkplatz Stiftskirche","alternativeNames":[],"localizedNames":{},"coordinates":[8.8710129,48.5970615],"address":null,"type":"amenity:parking"},{"name":"Grenzstein 010","alternativeNames":[],"localizedNames":{},"coordinates":[8.926417,48.60602],"address":null,"type":null},{"name":"Grenzstein 001","alternativeNames":[],"localizedNames":{},"coordinates":[8.9669289,48.5804463],"address":null,"type":null},{"name":"Grenzstein 009","alternativeNames":[],"localizedNames":{},"coordinates":[8.9297117,48.6143293],"address":null,"type":null},{"name":"Grenzstein 016","alternativeNames":[],"localizedNames":{},"coordinates":[8.915138,48.589866],"address":null,"type":null},{"name":"Alte Gaben 46","alternativeNames":[],"localizedNames":{},"coordinates":[8.9061215,48.6092223],"address":null,"type":null},{"name":"Alte Gaben 48","alternativeNames":[],"localizedNames":{},"coordinates":[8.9012589,48.6075526],"address":null,"type":null},{"name":"Alte Gaben 49","alternativeNames":[],"localizedNames":{},"coordinates":[8.9005216,48.6074993],"address":null,"type":null},{"name":"Alte Gaben 50","alternativeNames":[],"localizedNames":{},"coordinates":[8.8989119,48.6066777],"address":null,"type":null},{"name":"Grenzstein 029","alternativeNames":[],"localizedNames":{},"coordinates":[8.9263292,48.6131188],"address":null,"type":null},{"name":"Rohrbrunnen","alternativeNames":[],"localizedNames":{},"coordinates":[8.96209,48.587144],"address":null,"type":"natural:spring"},{"name":"Grenzstein 041","alternativeNames":[],"localizedNames":{},"coordinates":[8.9142078,48.5953295],"address":null,"type":null},{"name":"Alte Gaben 58","alternativeNames":[],"localizedNames":{},"coordinates":[8.909949,48.6103134],"address":null,"type":null},{"name":"Alte Gaben 59","alternativeNames":[],"localizedNames":{},"coordinates":[8.9101233,48.6102396],"address":null,"type":null},{"name":"Grenzstein 007","alternativeNames":[],"localizedNames":{},"coordinates":[8.9069172,48.6099399],"address":null,"type":null},{"name":"Grenzstein 006","alternativeNames":[],"localizedNames":{},"coordinates":[8.9073153,48.6101028],"address":null,"type":null},{"name":"Grenzstein 005","alternativeNames":[],"localizedNames":{},"coordinates":[8.9077913,48.6101578],"address":null,"type":null},{"name":"Grenzstein 004","alternativeNames":[],"localizedNames":{},"coordinates":[8.9085736,48.6103704],"address":null,"type":null},{"name":"Grenzstein 003","alternativeNames":[],"localizedNames":{},"coordinates":[8.9160119,48.6102819],"address":null,"type":null},{"name":"Grenzstein 002","alternativeNames":[],"localizedNames":{},"coordinates":[8.9270086,48.6060831],"address":null,"type":null},{"name":"Grenzstein 100","alternativeNames":[],"localizedNames":{},"coordinates":[8.9675328,48.5881339],"address":null,"type":null},{"name":"Herrenberg","alternativeNames":[],"localizedNames":{},"coordinates":[8.8990287,48.5807903],"address":null,"type":null},{"name":"Reste der \"Dicken Eiche\"","alternativeNames":[],"localizedNames":{},"coordinates":[8.9640986,48.6078377],"address":null,"type":"natural:tree"},{"name":"Grüner Baum","alternativeNames":[],"localizedNames":{},"coordinates":[8.8896665,48.6243142],"address":null,"type":"amenity:restaurant"},{"name":"Dolce Vita","alternativeNames":[],"localizedNames":{},"coordinates":[8.8712301,48.5947857],"address":"Auf dem Graben 18","type":"amenity:restaurant"},{"name":"Lamm","alternativeNames":[],"localizedNames":{},"coordinates":[8.8696033,48.595694],"address":"Schulstraße 3","type":"amenity:restaurant"},{"name":"Alte Brennerei","alternativeNames":[],"localizedNames":{},"coordinates":[8.8696793,48.5956351],"address":"Schulstraße 5","type":"shop:alcohol"},{"name":"Hinz und Kunz","alternativeNames":[],"localizedNames":{},"coordinates":[8.8697491,48.5949361],"address":"Schulstraße 11","type":"amenity:restaurant"},{"name":"Edeka Center","alternativeNames":["E-Center"],"localizedNames":{},"coordinates":[8.8707991,48.5982376],"address":null,"type":"shop:supermarket"},{"name":"Cut & Cream Hair.Style.Cosmetics.","alternativeNames":[],"localizedNames":{},"coordinates":[8.8884586,48.6224984],"address":null,"type":"shop:hairdresser"},{"name":"Praxis für Physiotherapie Assmann-Speiser","alternativeNames":[],"localizedNames":{},"coordinates":[8.8899473,48.6223037],"address":null,"type":null},{"name":"Grenzstein 043","alternativeNames":[],"localizedNames":{},"coordinates":[8.898654,48.599784],"address":null,"type":null},{"name":"Grenzstein 044","alternativeNames":[],"localizedNames":{},"coordinates":[8.899634,48.599651],"address":null,"type":null},{"name":"Distriktstein 09","alternativeNames":[],"localizedNames":{},"coordinates":[8.9035083,48.5964299],"address":null,"type":null},{"name":"Schönbuch-Apotheke","alternativeNames":[],"localizedNames":{},"coordinates":[8.8780088,48.5760881],"address":"Schloßstraße 11","type":"amenity:pharmacy"},{"name":"Gültstein - Erholungsheim","alternativeNames":[],"localizedNames":{},"coordinates":[8.8800393,48.5780916],"address":null,"type":null},{"name":"Gültstein Kirche","alternativeNames":[],"localizedNames":{},"coordinates":[8.8781617,48.5760078],"address":null,"type":"public_transport:platform"},{"name":"Marko Brose Garten und Landschaftspflege","alternativeNames":[],"localizedNames":{},"coordinates":[8.9062418,48.643219],"address":null,"type":"craft:gardener"},{"name":"BWPOST","alternativeNames":[],"localizedNames":{},"coordinates":[8.8996439,48.6421454],"address":null,"type":"amenity:post_office"},{"name":"Schäberle Rehavital","alternativeNames":[],"localizedNames":{},"coordinates":[8.9010176,48.6421201],"address":null,"type":"shop:medical_supply"},{"name":"Werkzeugschärfedienst Gärtringen GbR","alternativeNames":[],"localizedNames":{},"coordinates":[8.8993647,48.6418622],"address":null,"type":"craft:repair_shop"},{"name":"Grenzstein 104","alternativeNames":[],"localizedNames":{},"coordinates":[8.9105546,48.5973447],"address":null,"type":null},{"name":"B&G Style","alternativeNames":[],"localizedNames":{},"coordinates":[8.87069,48.5957337],"address":null,"type":"shop:hairdresser"},{"name":"Ganz Ohne","alternativeNames":[],"localizedNames":{},"coordinates":[8.8700095,48.5965651],"address":null,"type":"shop:convenience"},{"name":"Papyrus Spiel &Bücher","alternativeNames":[],"localizedNames":{},"coordinates":[8.8704104,48.597216],"address":null,"type":"shop:books"},{"name":"Julius Wurster","alternativeNames":[],"localizedNames":{},"coordinates":[8.808323,48.5920687],"address":null,"type":null},{"name":"Grenzstein 024","alternativeNames":[],"localizedNames":{},"coordinates":[8.922766,48.6056898],"address":null,"type":null},{"name":"Grenzstein 062","alternativeNames":[],"localizedNames":{},"coordinates":[8.9284124,48.6061014],"address":null,"type":null},{"name":"Sila'm Kebap Haus","alternativeNames":[],"localizedNames":{},"coordinates":[8.8665675,48.5945216],"address":"Horber Straße 13","type":"amenity:fast_food"},{"name":"Miss Elli's Modeecke","alternativeNames":[],"localizedNames":{},"coordinates":[8.8957493,48.6430091],"address":null,"type":"shop:boutique"},{"name":"Kindergarten Wilhelm-Haarer-Straße","alternativeNames":[],"localizedNames":{},"coordinates":[8.8382412,48.6100197],"address":"Wilhelm-Haarer-Straße 6","type":"amenity:kindergarten"},{"name":"Rathaus Haslach","alternativeNames":[],"localizedNames":{},"coordinates":[8.8397126,48.5829538],"address":"Hohenzollernstraße 33","type":"amenity:townhall"},{"name":"Widmayer-Stein","alternativeNames":[],"localizedNames":{},"coordinates":[8.8155997,48.5943713],"address":null,"type":null},{"name":"Schäfer Seeger","alternativeNames":[],"localizedNames":{},"coordinates":[8.8612469,48.5970775],"address":null,"type":null},{"name":"Jenny Nails","alternativeNames":[],"localizedNames":{},"coordinates":[8.8724763,48.5949247],"address":"Hasenplatz 9","type":"shop:beauty"},{"name":"Amplifon","alternativeNames":[],"localizedNames":{},"coordinates":[8.8667605,48.5944657],"address":null,"type":"shop:hearing_aids"},{"name":"Keimling Naturkost","alternativeNames":[],"localizedNames":{},"coordinates":[8.8730717,48.5947326],"address":"Tübinger Straße 37","type":"shop:supermarket"},{"name":"Grafenberg","alternativeNames":[],"localizedNames":{},"coordinates":[8.9222641,48.5802459],"address":null,"type":"natural:peak"},{"name":"Zum Botenfischer","alternativeNames":[],"localizedNames":{},"coordinates":[8.8647012,48.5960879],"address":null,"type":"tourism:hotel"},{"name":"Chinarestaurant En Fu","alternativeNames":[],"localizedNames":{},"coordinates":[8.8669417,48.5957635],"address":null,"type":"amenity:restaurant"},{"name":"Garni Neumann","alternativeNames":[],"localizedNames":{},"coordinates":[8.8666375,48.5958651],"address":null,"type":"tourism:hotel"},{"name":"Mutterhauskirche","alternativeNames":[],"localizedNames":{},"coordinates":[8.8786543,48.5961311],"address":null,"type":"amenity:place_of_worship"},{"name":"Kinderspielplatz Ritterstraße","alternativeNames":[],"localizedNames":{},"coordinates":[8.9195029,48.6237873],"address":null,"type":"leisure:playground"},{"name":"Nagel's Backhaus und Cafe","alternativeNames":[],"localizedNames":{},"coordinates":[8.9227124,48.6261937],"address":"Gärtringer Straße 19","type":"shop:bakery"},{"name":"Kfz-Werkstatt Schrade","alternativeNames":[],"localizedNames":{},"coordinates":[8.9211667,48.6253886],"address":null,"type":"shop:car_repair"},{"name":"Haarstudio Ruth Kurrle","alternativeNames":[],"localizedNames":{},"coordinates":[8.9253608,48.6262339],"address":null,"type":"shop:hairdresser"},{"name":"Oberjesingen Zaberstraße","alternativeNames":[],"localizedNames":{},"coordinates":[8.8362954,48.6208613],"address":null,"type":null},{"name":"Komet Karosseriebau","alternativeNames":[],"localizedNames":{},"coordinates":[8.8628207,48.5959495],"address":null,"type":"shop:car_repair"},{"name":"Pendelschlag","alternativeNames":[],"localizedNames":{},"coordinates":[8.8681335,48.5967105],"address":null,"type":"tourism:artwork"},{"name":"Zwickmühle","alternativeNames":[],"localizedNames":{},"coordinates":[8.8630366,48.5937097],"address":null,"type":"tourism:artwork"},{"name":"Partnerstädte","alternativeNames":[],"localizedNames":{},"coordinates":[8.8646178,48.5932168],"address":null,"type":null},{"name":"Seegers Stadtcafe","alternativeNames":[],"localizedNames":{},"coordinates":[8.8707807,48.5947256],"address":null,"type":"amenity:cafe"},{"name":"Seeger's Backspezialität","alternativeNames":[],"localizedNames":{},"coordinates":[8.8707706,48.5948825],"address":null,"type":"amenity:cafe"},{"name":"Mauerwerk","alternativeNames":[],"localizedNames":{},"coordinates":[8.8699714,48.5945422],"address":"Hindenburgstraße 22","type":"amenity:theatre"},{"name":"Mauerwerk","alternativeNames":[],"localizedNames":{},"coordinates":[8.8699905,48.5946118],"address":"Hindenburgstraße 22","type":"amenity:restaurant"},{"name":"Rotes Meer","alternativeNames":[],"localizedNames":{},"coordinates":[8.8818432,48.6031598],"address":null,"type":"tourism:information"},{"name":"Waldseilgarten","alternativeNames":[],"localizedNames":{},"coordinates":[8.8953394,48.6042271],"address":null,"type":"amenity:biergarten"},{"name":"Ehemalige Gaststätte Hirsch","alternativeNames":[],"localizedNames":{},"coordinates":[8.9663136,48.6248799],"address":"Ehninger Straße 11","type":"amenity:restaurant"},{"name":"UKW-Rundfunksender Herrenberg","alternativeNames":[],"localizedNames":{},"coordinates":[8.8813942,48.6028066],"address":null,"type":"man_made:communications_tower"},{"name":"Serways","alternativeNames":[],"localizedNames":{},"coordinates":[8.9044678,48.615289],"address":null,"type":"amenity:restaurant"},{"name":"Grenzstein 057","alternativeNames":[],"localizedNames":{},"coordinates":[8.8985602,48.5998407],"address":null,"type":null},{"name":"Wanderkarte","alternativeNames":[],"localizedNames":{},"coordinates":[8.9524492,48.61802],"address":null,"type":"tourism:information"},{"name":"Hafner und Wassermädchen","alternativeNames":[],"localizedNames":{},"coordinates":[8.9667464,48.6252128],"address":null,"type":null},{"name":"Fußgängerüberweg Mühlstraße","alternativeNames":[],"localizedNames":{},"coordinates":[8.8601546,48.5998683],"address":null,"type":null},{"name":"Hausemer Bücherschrank","alternativeNames":[],"localizedNames":{},"coordinates":[8.9685438,48.6243483],"address":null,"type":"amenity:public_bookcase"},{"name":"Marktsstand Grimm","alternativeNames":[],"localizedNames":{},"coordinates":[8.9670871,48.6251352],"address":null,"type":null},{"name":"Fuchsbau","alternativeNames":[],"localizedNames":{},"coordinates":[8.9654489,48.6143931],"address":null,"type":"amenity:cafe"},{"name":"Heizmannstein","alternativeNames":[],"localizedNames":{},"coordinates":[8.794091,48.6289093],"address":null,"type":null},{"name":"Grenzweg Waldlehrpfad","alternativeNames":[],"localizedNames":{},"coordinates":[8.8071373,48.6362551],"address":null,"type":"tourism:information"},{"name":"Deckenpfronn Lehmgrube","alternativeNames":[],"localizedNames":{},"coordinates":[8.8073492,48.6407676],"address":null,"type":"tourism:information"},{"name":"Sühnekreuz","alternativeNames":[],"localizedNames":{},"coordinates":[8.8506422,48.5848494],"address":null,"type":null},{"name":"Wanderkarte","alternativeNames":[],"localizedNames":{},"coordinates":[8.9212633,48.5867562],"address":null,"type":"tourism:information"},{"name":"Fresseiche","alternativeNames":[],"localizedNames":{},"coordinates":[8.9409764,48.5940138],"address":null,"type":"tourism:information"},{"name":"Lebensgemeinschaft Wald","alternativeNames":[],"localizedNames":{},"coordinates":[8.901772,48.6027478],"address":null,"type":"tourism:information"},{"name":"Eine alte Eiche erzählt Ihre Geschichte","alternativeNames":[],"localizedNames":{},"coordinates":[8.8987726,48.6030857],"address":null,"type":"tourism:information"},{"name":"Heimische Käfer und Schmetterlinge","alternativeNames":[],"localizedNames":{},"coordinates":[8.9010686,48.6027132],"address":null,"type":"tourism:information"},{"name":"Der Herrenberger Stadtwald","alternativeNames":[],"localizedNames":{},"coordinates":[8.8973913,48.6035327],"address":null,"type":"tourism:information"},{"name":"Der Kohlenstoffkreislauf","alternativeNames":[],"localizedNames":{},"coordinates":[8.8970775,48.6036959],"address":null,"type":"tourism:information"},{"name":"Der Alte Rain","alternativeNames":[],"localizedNames":{},"coordinates":[8.8944509,48.6048611],"address":null,"type":"tourism:information"},{"name":"Tiere des Waldes","alternativeNames":[],"localizedNames":{},"coordinates":[8.8927047,48.6053045],"address":null,"type":"tourism:information"},{"name":"Artenreichtum am Waldsaum","alternativeNames":[],"localizedNames":{},"coordinates":[8.8912966,48.6052921],"address":null,"type":"tourism:information"},{"name":"Bunter Mergel","alternativeNames":[],"localizedNames":{},"coordinates":[8.8905885,48.6056876],"address":null,"type":"tourism:information"},{"name":"Trocken- und Halbtrockenrasen","alternativeNames":[],"localizedNames":{},"coordinates":[8.8894351,48.6060813],"address":null,"type":"tourism:information"},{"name":"Am Kapf","alternativeNames":[],"localizedNames":{},"coordinates":[8.8889657,48.6060547],"address":null,"type":"tourism:information"},{"name":"Eulen und Greifvögel","alternativeNames":[],"localizedNames":{},"coordinates":[8.8806321,48.6016313],"address":null,"type":"tourism:information"},{"name":"Fledermäuse und ihre Lebensweise","alternativeNames":[],"localizedNames":{},"coordinates":[8.8792481,48.6004748],"address":null,"type":"tourism:information"},{"name":"Einheimische Singvögel","alternativeNames":[],"localizedNames":{},"coordinates":[8.8784005,48.5996305],"address":null,"type":"tourism:information"},{"name":"Der Kanonenbuckel","alternativeNames":[],"localizedNames":{},"coordinates":[8.874396,48.5977218],"address":null,"type":"tourism:information"},{"name":"Aussichtspunkt Schlossberg","alternativeNames":[],"localizedNames":{},"coordinates":[8.8736664,48.5974362],"address":null,"type":"tourism:information"},{"name":"A.P. Alter Rain","alternativeNames":[],"localizedNames":{},"coordinates":[8.8898508,48.6035159],"address":null,"type":"tourism:information"},{"name":"Kalter Bronnen","alternativeNames":[],"localizedNames":{},"coordinates":[8.9157449,48.6060752],"address":null,"type":"tourism:information"},{"name":"Abtsweg","alternativeNames":[],"localizedNames":{},"coordinates":[8.9180904,48.6078844],"address":null,"type":"tourism:information"},{"name":"Aispach","alternativeNames":[],"localizedNames":{},"coordinates":[8.9558412,48.6330279],"address":null,"type":"tourism:information"},{"name":"Egelsberg","alternativeNames":[],"localizedNames":{},"coordinates":[8.9697216,48.6383455],"address":null,"type":"tourism:information"},{"name":"Alter Fritz","alternativeNames":[],"localizedNames":{},"coordinates":[8.8347243,48.6238303],"address":null,"type":"amenity:pub"},{"name":"Grenzstein 072","alternativeNames":[],"localizedNames":{},"coordinates":[8.9490021,48.6255464],"address":null,"type":null},{"name":"Waldschrat-Bank","alternativeNames":[],"localizedNames":{},"coordinates":[8.9047158,48.6050284],"address":null,"type":"amenity:bench"},{"name":"Hildrizhausen","alternativeNames":[],"localizedNames":{},"coordinates":[8.9702038,48.6253401],"address":null,"type":null},{"name":"Fahrschule Halanke GmbH","alternativeNames":[],"localizedNames":{},"coordinates":[8.9016743,48.6421326],"address":null,"type":"amenity:driving_school"},{"name":"Bienenlehrpfad","alternativeNames":[],"localizedNames":{},"coordinates":[8.8902692,48.6005655],"address":null,"type":"tourism:information"},{"name":"Mahnmal gegen Mülldeponie","alternativeNames":[],"localizedNames":{},"coordinates":[8.9095613,48.5888248],"address":null,"type":"tourism:information"},{"name":"Köhlereiche","alternativeNames":[],"localizedNames":{},"coordinates":[8.9095938,48.5889014],"address":null,"type":"natural:tree"},{"name":"Beutler Münzen und Edelmetalle GmbH","alternativeNames":[],"localizedNames":{},"coordinates":[8.9111311,48.6403373],"address":null,"type":"shop:precious_metals"},{"name":"Waldfriedhof","alternativeNames":[],"localizedNames":{},"coordinates":[8.9036348,48.6020352],"address":null,"type":"public_transport:platform"},{"name":"Wanderkarte","alternativeNames":[],"localizedNames":{},"coordinates":[8.903788,48.6016472],"address":null,"type":"tourism:information"},{"name":"Feuer und Flamme Traugott Binder GmbH","alternativeNames":[],"localizedNames":{},"coordinates":[8.8787396,48.5736172],"address":"Kappstraße 12","type":"shop:fireplace"},{"name":"Herrenberg Torgauer Weg","alternativeNames":[],"localizedNames":{},"coordinates":[8.8483788,48.5929423],"address":null,"type":"public_transport:platform"},{"name":"Grafenberg","alternativeNames":[],"localizedNames":{},"coordinates":[8.9223043,48.5801865],"address":null,"type":"tourism:information"},{"name":"Naturfreundehaus","alternativeNames":[],"localizedNames":{},"coordinates":[8.9028154,48.6028538],"address":null,"type":"amenity:restaurant"},{"name":"Wanderkarte","alternativeNames":[],"localizedNames":{},"coordinates":[8.8817171,48.6031083],"address":null,"type":"tourism:information"},{"name":"Schafwäsche","alternativeNames":[],"localizedNames":{},"coordinates":[8.9576056,48.6043002],"address":null,"type":null},{"name":"Ruine Müneck","alternativeNames":[],"localizedNames":{},"coordinates":[8.9693436,48.5741538],"address":null,"type":null},{"name":"Hagtor","alternativeNames":[],"localizedNames":{},"coordinates":[8.8721307,48.5972796],"address":null,"type":null},{"name":"Wanderkarte","alternativeNames":[],"localizedNames":{},"coordinates":[8.9387193,48.5802982],"address":null,"type":"tourism:information"},{"name":"Ehem. Burg Müneck","alternativeNames":[],"localizedNames":{},"coordinates":[8.969341,48.5736728],"address":null,"type":"tourism:information"},{"name":"Vereinsheim des Fußballvereins Mönchberg","alternativeNames":[],"localizedNames":{},"coordinates":[8.9240438,48.5830016],"address":null,"type":"amenity:restaurant"},{"name":"Die Schatztruhe","alternativeNames":[],"localizedNames":{},"coordinates":[8.8996735,48.6421392],"address":null,"type":"shop:stationery"},{"name":"Haart Am Limit","alternativeNames":[],"localizedNames":{},"coordinates":[8.8997922,48.642109],"address":null,"type":"shop:hairdresser"},{"name":"Mammutbaum","alternativeNames":[],"localizedNames":{},"coordinates":[8.84126,48.5829791],"address":null,"type":"natural:tree"},{"name":"Öfele","alternativeNames":[],"localizedNames":{},"coordinates":[8.8012738,48.5788466],"address":null,"type":null},{"name":"Getränke Koch","alternativeNames":[],"localizedNames":{},"coordinates":[8.9279168,48.6259505],"address":null,"type":"shop:beverages"},{"name":"Schwarzwaldapotheke","alternativeNames":[],"localizedNames":{},"coordinates":[8.8614762,48.5956433],"address":null,"type":"amenity:pharmacy"},{"name":"GEIGER Umweltsanierung GmbH","alternativeNames":[],"localizedNames":{},"coordinates":[8.8917578,48.5812837],"address":"Hewlett-Packard-Straße 1/1","type":"office:environmental_engeneer"},{"name":"Gärtringen","alternativeNames":[],"localizedNames":{},"coordinates":[8.9088491,48.6408336],"address":null,"type":"public_transport:stop_position"},{"name":"Nufringen","alternativeNames":[],"localizedNames":{},"coordinates":[8.8903171,48.6203314],"address":null,"type":"public_transport:stop_position"},{"name":"Herrenberg","alternativeNames":[],"localizedNames":{},"coordinates":[8.8615153,48.5933258],"address":null,"type":"public_transport:stop_position"},{"name":"Herrenberg","alternativeNames":[],"localizedNames":{},"coordinates":[8.8614747,48.5933854],"address":null,"type":"public_transport:stop_position"},{"name":"Sehne","alternativeNames":[],"localizedNames":{},"coordinates":[8.863554,48.5936213],"address":null,"type":"shop:bakery"},{"name":"Apotheke am Bahnhof","alternativeNames":[],"localizedNames":{},"coordinates":[8.8636422,48.5936469],"address":"Bahnhofstraße 17","type":"amenity:pharmacy"},{"name":"Dr. med. Christa Reinecke","alternativeNames":[],"localizedNames":{},"coordinates":[8.8696848,48.5946295],"address":"Hindenburgstraße 20","type":"amenity:doctors"},{"name":"LGI Logistics Group International GmbH","alternativeNames":[],"localizedNames":{},"coordinates":[8.8920086,48.5807561],"address":"Hewlett-Packard-Straße 1/1","type":"office:logistics"},{"name":"Physiotherapie Impuls","alternativeNames":[],"localizedNames":{},"coordinates":[8.8311324,48.6233007],"address":null,"type":null},{"name":"Bon Api Imkerei Straßgütl","alternativeNames":[],"localizedNames":{},"coordinates":[8.8275682,48.6200782],"address":"Moselstraße 30","type":"shop:convenience"},{"name":"Mühle Oberjesingen","alternativeNames":[],"localizedNames":{},"coordinates":[8.8315242,48.6228344],"address":null,"type":"man_made:silo"},{"name":"La Colomba","alternativeNames":[],"localizedNames":{},"coordinates":[8.8349853,48.6235668],"address":null,"type":"amenity:restaurant"},{"name":"Friedhof Oberjesingen","alternativeNames":[],"localizedNames":{},"coordinates":[8.8390561,48.6247279],"address":null,"type":"amenity:grave_yard"},{"name":"Kreissparkasse Oberjesingen","alternativeNames":[],"localizedNames":{},"coordinates":[8.8347564,48.6231554],"address":null,"type":"amenity:atm"},{"name":"Freiwillige Feuerwehr Oberjesingen","alternativeNames":[],"localizedNames":{},"coordinates":[8.8291755,48.6226392],"address":null,"type":"amenity:fire_station"},{"name":"Dr. Sabine Orban","alternativeNames":[],"localizedNames":{},"coordinates":[8.8710728,48.6000785],"address":"Affstätter Tal 7","type":"amenity:dentist"},{"name":"Sehne","alternativeNames":[],"localizedNames":{},"coordinates":[8.886443,48.5750358],"address":"Lise-Meitner-Straße 1","type":"shop:bakery"},{"name":"Grenzstein 130","alternativeNames":[],"localizedNames":{},"coordinates":[8.9363328,48.581257],"address":null,"type":null},{"name":"Grenzstein 136","alternativeNames":[],"localizedNames":{},"coordinates":[8.9286579,48.5814957],"address":null,"type":null},{"name":"Grenzstein 134","alternativeNames":[],"localizedNames":{},"coordinates":[8.9339228,48.5815217],"address":null,"type":null},{"name":"Grenzstein 131","alternativeNames":[],"localizedNames":{},"coordinates":[8.9352373,48.5815637],"address":null,"type":null},{"name":"Grenzstein 133","alternativeNames":[],"localizedNames":{},"coordinates":[8.9347588,48.5815873],"address":null,"type":null},{"name":"Grenzstein 132","alternativeNames":[],"localizedNames":{},"coordinates":[8.9350618,48.5816138],"address":null,"type":null},{"name":"Grenzstein 138","alternativeNames":[],"localizedNames":{},"coordinates":[8.9266821,48.5816306],"address":null,"type":null},{"name":"Grenzstein 137","alternativeNames":[],"localizedNames":{},"coordinates":[8.9272143,48.5816392],"address":null,"type":null},{"name":"Grenzstein 135","alternativeNames":[],"localizedNames":{},"coordinates":[8.9319376,48.5817625],"address":null,"type":null},{"name":"Grenzstein 045","alternativeNames":[],"localizedNames":{},"coordinates":[8.9348288,48.5901727],"address":null,"type":null},{"name":"Grenzstein 035","alternativeNames":[],"localizedNames":{},"coordinates":[8.9357135,48.5904825],"address":null,"type":null},{"name":"Grenzstein 021","alternativeNames":[],"localizedNames":{},"coordinates":[8.9339141,48.5905638],"address":null,"type":null},{"name":"Grenzstein 028","alternativeNames":[],"localizedNames":{},"coordinates":[8.9363254,48.5906067],"address":null,"type":null},{"name":"Grenzstein 033","alternativeNames":[],"localizedNames":{},"coordinates":[8.9373204,48.5907813],"address":null,"type":null},{"name":"Grenzstein 038","alternativeNames":[],"localizedNames":{},"coordinates":[8.9381728,48.5910614],"address":null,"type":null},{"name":"Grenzstein 014","alternativeNames":[],"localizedNames":{},"coordinates":[8.9391891,48.5913793],"address":null,"type":null},{"name":"Grenzstein 141","alternativeNames":[],"localizedNames":{},"coordinates":[8.9163184,48.6160607],"address":null,"type":null},{"name":"Grenzstein 142","alternativeNames":[],"localizedNames":{},"coordinates":[8.9156897,48.6150328],"address":null,"type":null},{"name":"Grenzstein 143","alternativeNames":[],"localizedNames":{},"coordinates":[8.9137,48.6125365],"address":null,"type":null},{"name":"Schillerlinde","alternativeNames":[],"localizedNames":{},"coordinates":[8.812383,48.6434762],"address":null,"type":"natural:tree"},{"name":"Grenzstein 040","alternativeNames":[],"localizedNames":{},"coordinates":[8.9097809,48.6103761],"address":null,"type":null},{"name":"Mönchberger Sattel","alternativeNames":[],"localizedNames":{},"coordinates":[8.9212338,48.5867378],"address":null,"type":"tourism:information"},{"name":"Martinsgarten","alternativeNames":[],"localizedNames":{},"coordinates":[8.9195253,48.5875286],"address":null,"type":"tourism:information"},{"name":"Alte Gaben 67","alternativeNames":[],"localizedNames":{},"coordinates":[8.893573,48.606135],"address":null,"type":null},{"name":"Alte Gaben 68","alternativeNames":[],"localizedNames":{},"coordinates":[8.89428,48.6063085],"address":null,"type":null},{"name":"Alte Gaben 69","alternativeNames":[],"localizedNames":{},"coordinates":[8.8947058,48.6061764],"address":null,"type":null},{"name":"Alte Gaben 70","alternativeNames":[],"localizedNames":{},"coordinates":[8.895038,48.6062874],"address":null,"type":null},{"name":"Alte Gaben 71","alternativeNames":[],"localizedNames":{},"coordinates":[8.8956171,48.6061538],"address":null,"type":null},{"name":"Alte Gaben 72","alternativeNames":[],"localizedNames":{},"coordinates":[8.8969962,48.6059291],"address":null,"type":null},{"name":"Alte Gaben 63","alternativeNames":[],"localizedNames":{},"coordinates":[8.898461,48.6063797],"address":null,"type":"man_made:survey_point"},{"name":"Alte Gaben 37","alternativeNames":[],"localizedNames":{},"coordinates":[8.9015419,48.6074016],"address":null,"type":null},{"name":"Alte Gaben 36","alternativeNames":[],"localizedNames":{},"coordinates":[8.9021918,48.6074751],"address":null,"type":null},{"name":"Alte Gaben 35","alternativeNames":[],"localizedNames":{},"coordinates":[8.9027381,48.6075716],"address":null,"type":null},{"name":"Alte Gaben 34","alternativeNames":[],"localizedNames":{},"coordinates":[8.9033422,48.6076246],"address":null,"type":null},{"name":"Alte Gaben 33","alternativeNames":[],"localizedNames":{},"coordinates":[8.9037593,48.6077777],"address":null,"type":null},{"name":"Alte Gaben 32","alternativeNames":[],"localizedNames":{},"coordinates":[8.9040142,48.6079907],"address":null,"type":null},{"name":"Alte Gaben 31","alternativeNames":[],"localizedNames":{},"coordinates":[8.9042999,48.6083721],"address":null,"type":null},{"name":"Alte Gaben 47","alternativeNames":[],"localizedNames":{},"coordinates":[8.904714,48.608522],"address":null,"type":null},{"name":"Alte Gaben 30","alternativeNames":[],"localizedNames":{},"coordinates":[8.9051789,48.6086856],"address":null,"type":null},{"name":"Kuppingen","alternativeNames":[],"localizedNames":{},"coordinates":[8.8370179,48.6071216],"address":null,"type":null},{"name":"Kuppingen","alternativeNames":[],"localizedNames":{},"coordinates":[8.8339655,48.6101014],"address":null,"type":null},{"name":"Daimlerstraße","alternativeNames":[],"localizedNames":{},"coordinates":[8.8693897,48.6017287],"address":null,"type":null},{"name":"Blutspur","alternativeNames":[],"localizedNames":{},"coordinates":[8.8659457,48.5943215],"address":null,"type":"tourism:artwork"},{"name":"Kalligraphische Figur","alternativeNames":[],"localizedNames":{},"coordinates":[8.8661979,48.5947825],"address":null,"type":null},{"name":"Kubus XIII 99","alternativeNames":[],"localizedNames":{},"coordinates":[8.8659419,48.5946578],"address":null,"type":null},{"name":"Morgen wird alles gut","alternativeNames":[],"localizedNames":{},"coordinates":[8.8648063,48.5942349],"address":null,"type":"tourism:artwork"},{"name":"Ratgebs Kopf","alternativeNames":[],"localizedNames":{},"coordinates":[8.8644279,48.594096],"address":null,"type":"tourism:artwork"},{"name":"Corpus","alternativeNames":[],"localizedNames":{},"coordinates":[8.8707193,48.5963104],"address":null,"type":"tourism:artwork"},{"name":"Faltung","alternativeNames":[],"localizedNames":{},"coordinates":[8.8709587,48.5966307],"address":null,"type":"tourism:artwork"},{"name":"Ohne Titel","alternativeNames":[],"localizedNames":{},"coordinates":[8.8703921,48.5964672],"address":null,"type":"tourism:artwork"},{"name":"Bauernkriegsfamilie","alternativeNames":[],"localizedNames":{},"coordinates":[8.8729972,48.5972114],"address":null,"type":"tourism:artwork"},{"name":"Einflächen-Faltstück","alternativeNames":[],"localizedNames":{},"coordinates":[8.8725469,48.5970638],"address":null,"type":"tourism:artwork"},{"name":"Engel und Geschundener","alternativeNames":[],"localizedNames":{},"coordinates":[8.8729982,48.5973489],"address":null,"type":"tourism:artwork"},{"name":"Gefangene","alternativeNames":[],"localizedNames":{},"coordinates":[8.8725709,48.5969448],"address":null,"type":"tourism:artwork"},{"name":"Kopfkeil I","alternativeNames":[],"localizedNames":{},"coordinates":[8.8738209,48.5973903],"address":null,"type":"tourism:artwork"},{"name":"Kopfkeil II","alternativeNames":[],"localizedNames":{},"coordinates":[8.8731694,48.5974119],"address":null,"type":"tourism:artwork"},{"name":"Lichtzeichen","alternativeNames":[],"localizedNames":{},"coordinates":[8.8728836,48.5969451],"address":null,"type":"tourism:artwork"},{"name":"Noli me tangere","alternativeNames":[],"localizedNames":{},"coordinates":[8.8729741,48.597298],"address":null,"type":"tourism:artwork"},{"name":"Ratgeb Altar","alternativeNames":[],"localizedNames":{},"coordinates":[8.8719123,48.5968993],"address":null,"type":"tourism:artwork"},{"name":"Ratgebs Frau","alternativeNames":[],"localizedNames":{},"coordinates":[8.872644,48.5973438],"address":null,"type":"tourism:artwork"},{"name":"Tuch für Jerg Ratgeb","alternativeNames":[],"localizedNames":{},"coordinates":[8.8731939,48.5975203],"address":null,"type":"tourism:artwork"},{"name":"Selimiye Moschee","alternativeNames":[],"localizedNames":{},"coordinates":[8.8710498,48.6025615],"address":"Daimlerstraße 22","type":"amenity:place_of_worship"},{"name":"Fritz Wassmer","alternativeNames":[],"localizedNames":{},"coordinates":[8.9034241,48.6421707],"address":null,"type":"shop:greengrocer"},{"name":"Trattoria zum Löwen","alternativeNames":[],"localizedNames":{},"coordinates":[8.9681183,48.6244043],"address":null,"type":"amenity:restaurant"},{"name":"Waldblick","alternativeNames":[],"localizedNames":{},"coordinates":[8.9725731,48.6252436],"address":null,"type":"tourism:guest_house"},{"name":"Lamm Pizzataxi","alternativeNames":[],"localizedNames":{},"coordinates":[8.9576232,48.5711523],"address":"Raiffeisenstraße 8","type":"amenity:restaurant"},{"name":"Krone Kuppingen","alternativeNames":[],"localizedNames":{},"coordinates":[8.8373453,48.6116863],"address":"Jettinger Straße 42","type":"amenity:restaurant"},{"name":"Das Haarwerk","alternativeNames":[],"localizedNames":{},